[{"property_type":"Condo\/Co-op","address":"1548 Jones St","city":"San Francisco","state":"CA","zip":"94109","price":1400000,"beds":2.0,"baths":2.0,"neighborhoods":"Nob Hill","square_feet":1158.0,"price_per_square_feet":1209.0,"hoa\/month":339.0,"lat":37.7956865,"lng":-122.4147746,"built_year":1910.0,"coordinates":"37.7956865,-122.4147746"},{"property_type":"Condo\/Co-op","address":"2200 Market St #402","city":"San Francisco","state":"CA","zip":"94114","price":1150000,"beds":1.0,"baths":1.5,"neighborhoods":"Duboce Triangle","square_feet":825.0,"price_per_square_feet":1394.0,"hoa\/month":627.0,"lat":37.7657893,"lng":-122.431598,"built_year":2014.0,"coordinates":"37.7657893,-122.431598"},{"property_type":"Condo\/Co-op","address":"2040 Franklin St #1004","city":"San Francisco","state":"CA","zip":"94109","price":998000,"beds":1.0,"baths":1.0,"neighborhoods":"Pacific Heights","square_feet":919.0,"price_per_square_feet":1086.0,"hoa\/month":942.0,"lat":37.7935189,"lng":-122.4243158,"built_year":1966.0,"coordinates":"37.7935189,-122.4243158"},{"property_type":"Condo\/Co-op","address":"1425 Vallejo St #205","city":"San Francisco","state":"CA","zip":"94109","price":1349000,"beds":2.0,"baths":2.0,"neighborhoods":"Russian Hill","square_feet":1034.0,"price_per_square_feet":1305.0,"hoa\/month":744.0,"lat":37.7967355,"lng":-122.4208266,"built_year":1982.0,"coordinates":"37.7967355,-122.42082659999998"},{"property_type":"Condo\/Co-op","address":"260 King St #903","city":"San Francisco","state":"CA","zip":"94107","price":1249000,"beds":2.0,"baths":2.0,"neighborhoods":"Mission Bay","square_feet":1286.0,"price_per_square_feet":971.0,"hoa\/month":932.0,"lat":37.7776422,"lng":-122.3934181,"built_year":2004.0,"coordinates":"37.7776422,-122.39341809999999"},{"property_type":"Condo\/Co-op","address":"125 Gilbert St #5","city":"San Francisco","state":"CA","zip":"94103","price":929000,"beds":1.0,"baths":1.5,"neighborhoods":"South of Market","square_feet":null,"price_per_square_feet":null,"hoa\/month":667.0,"lat":37.7730847,"lng":-122.4020908,"built_year":1996.0,"coordinates":"37.7730847,-122.40209080000001"},{"property_type":"Condo\/Co-op","address":"77 Van Ness Ave #505","city":"San Francisco","state":"CA","zip":"94102","price":845000,"beds":1.0,"baths":1.0,"neighborhoods":"Van Ness\/Civic Center","square_feet":947.0,"price_per_square_feet":892.0,"hoa\/month":443.0,"lat":37.7760549,"lng":-122.4199372,"built_year":2009.0,"coordinates":"37.7760549,-122.41993719999999"},{"property_type":"Multi-Family (2-4 Unit)","address":"351 29th Ave","city":"San Francisco","state":"CA","zip":"94121","price":2668000,"beds":6.0,"baths":4.0,"neighborhoods":"Central Richmond","square_feet":3038.0,"price_per_square_feet":878.0,"hoa\/month":null,"lat":37.782705,"lng":-122.4895507,"built_year":1911.0,"coordinates":"37.782705,-122.4895507"},{"property_type":"Condo\/Co-op","address":"1260 Clay St #205","city":"San Francisco","state":"CA","zip":"94108","price":799000,"beds":1.0,"baths":1.0,"neighborhoods":"Nob Hill","square_feet":null,"price_per_square_feet":null,"hoa\/month":575.0,"lat":37.7935706,"lng":-122.4136811,"built_year":1950.0,"coordinates":"37.7935706,-122.4136811"},{"property_type":"Condo\/Co-op","address":"115 Carl St #3","city":"San Francisco","state":"CA","zip":"94117","price":685000,"beds":1.0,"baths":1.0,"neighborhoods":"Parnassus\/Ashbury Heights","square_feet":572.0,"price_per_square_feet":1198.0,"hoa\/month":360.0,"lat":37.7655847,"lng":-122.4504283,"built_year":1964.0,"coordinates":"37.7655847,-122.4504283"},{"property_type":"Condo\/Co-op","address":"2987 Harrison St","city":"San Francisco","state":"CA","zip":"94110","price":1325000,"beds":3.0,"baths":2.0,"neighborhoods":"Inner Mission","square_feet":1658.0,"price_per_square_feet":799.0,"hoa\/month":180.0,"lat":37.749783,"lng":-122.4113096,"built_year":1900.0,"coordinates":"37.749783,-122.4113096"},{"property_type":"Condo\/Co-op","address":"1805 Pine St #22","city":"San Francisco","state":"CA","zip":"94109","price":609000,"beds":1.0,"baths":1.0,"neighborhoods":"Lower Pacific Height","square_feet":525.0,"price_per_square_feet":1160.0,"hoa\/month":484.0,"lat":37.7887911,"lng":-122.4256463,"built_year":1924.0,"coordinates":"37.788791100000005,-122.4256463"},{"property_type":"Single Family Residential","address":"1469 Palou Ave","city":"San Francisco","state":"CA","zip":"94124","price":999000,"beds":4.0,"baths":2.0,"neighborhoods":"Bayview","square_feet":2362.0,"price_per_square_feet":423.0,"hoa\/month":null,"lat":37.7324071,"lng":-122.3886318,"built_year":1900.0,"coordinates":"37.732407099999996,-122.3886318"},{"property_type":"Condo\/Co-op","address":"400 Beale St #1314","city":"San Francisco","state":"CA","zip":"94105","price":1599000,"beds":3.0,"baths":2.0,"neighborhoods":"South Beach","square_feet":1433.0,"price_per_square_feet":1116.0,"hoa\/month":978.0,"lat":37.7869049,"lng":-122.3909202,"built_year":2001.0,"coordinates":"37.7869049,-122.39092020000001"},{"property_type":"Condo\/Co-op","address":"10 Innes Ct #106","city":"San Francisco","state":"CA","zip":"94124","price":674998,"beds":1.0,"baths":1.0,"neighborhoods":"Hunters Point","square_feet":750.0,"price_per_square_feet":900.0,"hoa\/month":420.0,"lat":37.7280682,"lng":-122.3679965,"built_year":2018.0,"coordinates":"37.7280682,-122.3679965"},{"property_type":"Condo\/Co-op","address":"1150 Folsom St #4","city":"San Francisco","state":"CA","zip":"94103","price":999000,"beds":1.0,"baths":1.5,"neighborhoods":"South of Market","square_feet":1200.0,"price_per_square_feet":833.0,"hoa\/month":524.0,"lat":37.7759504,"lng":-122.4092942,"built_year":2000.0,"coordinates":"37.7759504,-122.4092942"},{"property_type":"Condo\/Co-op","address":"631 Folsom St Unit 10C","city":"San Francisco","state":"CA","zip":"94107","price":1249995,"beds":2.0,"baths":2.0,"neighborhoods":"Yerba Buena","square_feet":1054.0,"price_per_square_feet":1186.0,"hoa\/month":994.0,"lat":37.7847302,"lng":-122.3968612,"built_year":2009.0,"coordinates":"37.784730200000006,-122.39686119999999"},{"property_type":"Condo\/Co-op","address":"1075 Market St #211","city":"San Francisco","state":"CA","zip":"94103","price":579998,"beds":0.0,"baths":1.0,"neighborhoods":"South of Market","square_feet":423.0,"price_per_square_feet":1371.0,"hoa\/month":626.0,"lat":37.7807996,"lng":-122.4118342,"built_year":2018.0,"coordinates":"37.7807996,-122.4118342"},{"property_type":"Condo\/Co-op","address":"1160 Mission St #810","city":"San Francisco","state":"CA","zip":"94103","price":799000,"beds":1.0,"baths":1.0,"neighborhoods":"South of Market","square_feet":755.0,"price_per_square_feet":1058.0,"hoa\/month":777.0,"lat":37.7787037,"lng":-122.4126341,"built_year":2008.0,"coordinates":"37.7787037,-122.4126341"},{"property_type":"Single Family Residential","address":"1231 Judah St","city":"San Francisco","state":"CA","zip":"94122","price":1395000,"beds":3.0,"baths":4.0,"neighborhoods":"Inner Sunset","square_feet":1720.0,"price_per_square_feet":811.0,"hoa\/month":null,"lat":37.761522,"lng":-122.475415,"built_year":1937.0,"coordinates":"37.761522,-122.47541499999998"},{"property_type":"Single Family Residential","address":"817 Guerrero St","city":"San Francisco","state":"CA","zip":"94110","price":2600000,"beds":2.0,"baths":2.0,"neighborhoods":"Eureka Valley\/Dolore","square_feet":null,"price_per_square_feet":null,"hoa\/month":null,"lat":37.758045,"lng":-122.4232997,"built_year":1900.0,"coordinates":"37.758045,-122.4232997"},{"property_type":"Condo\/Co-op","address":"1875 Mission St #108","city":"San Francisco","state":"CA","zip":"94103","price":649000,"beds":0.0,"baths":1.0,"neighborhoods":"Inner Mission","square_feet":619.0,"price_per_square_feet":1048.0,"hoa\/month":526.0,"lat":37.7671013,"lng":-122.4194461,"built_year":2014.0,"coordinates":"37.7671013,-122.41944609999999"},{"property_type":"Condo\/Co-op","address":"221 Clara St #1","city":"San Francisco","state":"CA","zip":"94107","price":1175000,"beds":2.0,"baths":2.5,"neighborhoods":"South of Market","square_feet":1518.0,"price_per_square_feet":774.0,"hoa\/month":471.0,"lat":37.7789397,"lng":-122.4027541,"built_year":2000.0,"coordinates":"37.7789397,-122.4027541"},{"property_type":"Condo\/Co-op","address":"407 Miguel St","city":"San Francisco","state":"CA","zip":"94131","price":649000,"beds":1.0,"baths":1.0,"neighborhoods":"Glen Park","square_feet":null,"price_per_square_feet":null,"hoa\/month":245.0,"lat":37.73668,"lng":-122.426822,"built_year":1890.0,"coordinates":"37.73668,-122.426822"},{"property_type":"Condo\/Co-op","address":"1477 Dolores St #1477","city":"San Francisco","state":"CA","zip":"94110","price":1598000,"beds":2.0,"baths":2.0,"neighborhoods":"Noe Valley","square_feet":1483.0,"price_per_square_feet":1078.0,"hoa\/month":345.0,"lat":37.7458186,"lng":-122.4241859,"built_year":1906.0,"coordinates":"37.7458186,-122.42418590000001"},{"property_type":"Condo\/Co-op","address":"51 Innes Ct #207","city":"San Francisco","state":"CA","zip":"94124","price":699777,"beds":1.0,"baths":1.0,"neighborhoods":"San Francisco","square_feet":720.0,"price_per_square_feet":972.0,"hoa\/month":504.0,"lat":37.7272117,"lng":-122.367848,"built_year":2017.0,"coordinates":"37.727211700000005,-122.367848"},{"property_type":"Multi-Family (2-4 Unit)","address":"2437-2441 Post St","city":"San Francisco","state":"CA","zip":"94115","price":2149000,"beds":9.0,"baths":3.0,"neighborhoods":"Lower Pacific Height","square_feet":4260.0,"price_per_square_feet":504.0,"hoa\/month":null,"lat":37.7837411,"lng":-122.4419644,"built_year":1895.0,"coordinates":"37.7837411,-122.4419644"},{"property_type":"Condo\/Co-op","address":"1781 Oak St #3","city":"San Francisco","state":"CA","zip":"94117","price":1049000,"beds":2.0,"baths":1.0,"neighborhoods":"San Francisco","square_feet":772.0,"price_per_square_feet":1359.0,"hoa\/month":null,"lat":37.7714744,"lng":-122.4485572,"built_year":1924.0,"coordinates":"37.7714744,-122.4485572"},{"property_type":"Multi-Family (2-4 Unit)","address":"28 Santa Marina St","city":"San Francisco","state":"CA","zip":"94110","price":1250000,"beds":3.0,"baths":2.0,"neighborhoods":"San Francisco","square_feet":1436.0,"price_per_square_feet":870.0,"hoa\/month":null,"lat":37.7401767,"lng":-122.4225598,"built_year":1977.0,"coordinates":"37.740176700000006,-122.4225598"},{"property_type":"Condo\/Co-op","address":"4349 18th St","city":"San Francisco","state":"CA","zip":"94114","price":1450000,"beds":2.0,"baths":2.5,"neighborhoods":"San Francisco","square_feet":1209.0,"price_per_square_feet":1199.0,"hoa\/month":398.0,"lat":37.7605142,"lng":-122.4380156,"built_year":1904.0,"coordinates":"37.7605142,-122.4380156"},{"property_type":"Condo\/Co-op","address":"117 Diamond Cove Ter","city":"San Francisco","state":"CA","zip":"94134","price":949000,"beds":2.0,"baths":2.5,"neighborhoods":"San Francisco","square_feet":1368.0,"price_per_square_feet":694.0,"hoa\/month":null,"lat":37.7130704,"lng":-122.3941746,"built_year":2012.0,"coordinates":"37.7130704,-122.3941746"},{"property_type":"Condo\/Co-op","address":"5301 Mission St #4","city":"San Francisco","state":"CA","zip":"94112","price":779000,"beds":2.0,"baths":2.0,"neighborhoods":"San Francisco","square_feet":1018.0,"price_per_square_feet":765.0,"hoa\/month":307.0,"lat":37.7143074,"lng":-122.4426364,"built_year":2001.0,"coordinates":"37.714307399999996,-122.44263640000001"},{"property_type":"Single Family Residential","address":"1222 43rd Ave","city":"San Francisco","state":"CA","zip":"94122","price":949000,"beds":2.0,"baths":1.0,"neighborhoods":"Outer Sunset","square_feet":1075.0,"price_per_square_feet":883.0,"hoa\/month":null,"lat":37.7638278,"lng":-122.5027416,"built_year":1924.0,"coordinates":"37.7638278,-122.5027416"},{"property_type":"Single Family Residential","address":"1670 Newcomb Ave","city":"San Francisco","state":"CA","zip":"94124","price":850000,"beds":2.0,"baths":1.0,"neighborhoods":"Bayview","square_feet":1041.0,"price_per_square_feet":817.0,"hoa\/month":null,"lat":37.7362275,"lng":-122.3909974,"built_year":1936.0,"coordinates":"37.736227500000005,-122.39099740000002"},{"property_type":"Condo\/Co-op","address":"10 South Park St #9","city":"San Francisco","state":"CA","zip":"94107","price":1399000,"beds":2.0,"baths":1.75,"neighborhoods":"South Beach","square_feet":1145.0,"price_per_square_feet":1222.0,"hoa\/month":792.0,"lat":37.782357,"lng":-122.3935037,"built_year":1993.0,"coordinates":"37.782357,-122.3935037"},{"property_type":"Vacant Land","address":"7 Edgar Pl","city":"SAN FRANCISCO","state":"CA","zip":"94112","price":699000,"beds":null,"baths":null,"neighborhoods":"SAN FRANCISCO","square_feet":null,"price_per_square_feet":null,"hoa\/month":null,"lat":37.7205952,"lng":-122.4524539,"built_year":null,"coordinates":"37.720595200000005,-122.45245390000001"},{"property_type":"Condo\/Co-op","address":"401 Harrison St Unit 24G","city":"San Francisco","state":"CA","zip":"94105","price":1149000,"beds":1.0,"baths":1.0,"neighborhoods":"South Beach","square_feet":760.0,"price_per_square_feet":1512.0,"hoa\/month":1225.0,"lat":37.7864989,"lng":-122.3921487,"built_year":2014.0,"coordinates":"37.7864989,-122.39214869999999"},{"property_type":"Multi-Family (5+ Unit)","address":"888 Waller St","city":"San Francisco","state":"CA","zip":"94117","price":3750000,"beds":12.0,"baths":null,"neighborhoods":"Buena Vista Park","square_feet":5820.0,"price_per_square_feet":644.0,"hoa\/month":null,"lat":37.7703816,"lng":-122.4383084,"built_year":1900.0,"coordinates":"37.7703816,-122.4383084"},{"property_type":"Condo\/Co-op","address":"197-199 Joost Ave #199","city":"San Francisco","state":"CA","zip":"94131","price":878000,"beds":2.0,"baths":1.0,"neighborhoods":"Sunnyside","square_feet":null,"price_per_square_feet":null,"hoa\/month":271.0,"lat":37.732239,"lng":-122.4394685,"built_year":1908.0,"coordinates":"37.732239,-122.4394685"},{"property_type":"Condo\/Co-op","address":"451 Kansas St #573","city":"San Francisco","state":"CA","zip":"94107","price":889000,"beds":1.0,"baths":1.0,"neighborhoods":"Potrero Hill","square_feet":null,"price_per_square_feet":null,"hoa\/month":520.0,"lat":37.764113,"lng":-122.4029865,"built_year":2007.0,"coordinates":"37.764113,-122.4029865"},{"property_type":"Condo\/Co-op","address":"262 6th Ave","city":"San Francisco","state":"CA","zip":"94118","price":1895000,"beds":3.0,"baths":2.5,"neighborhoods":"Inner Richmond","square_feet":2045.0,"price_per_square_feet":927.0,"hoa\/month":230.0,"lat":37.7836653,"lng":-122.464249,"built_year":1905.0,"coordinates":"37.783665299999996,-122.464249"},{"property_type":"Condo\/Co-op","address":"590 Lombard St","city":"San Francisco","state":"CA","zip":"94133","price":2195000,"beds":3.0,"baths":3.0,"neighborhoods":"North Beach","square_feet":null,"price_per_square_feet":null,"hoa\/month":null,"lat":37.8031941,"lng":-122.411154,"built_year":1926.0,"coordinates":"37.8031941,-122.41115400000001"},{"property_type":"Condo\/Co-op","address":"77 Dow Pl #102","city":"San Francisco","state":"CA","zip":"94107","price":1019000,"beds":1.0,"baths":1.5,"neighborhoods":"Yerba Buena","square_feet":1173.0,"price_per_square_feet":869.0,"hoa\/month":870.0,"lat":37.7841561,"lng":-122.3966189,"built_year":2002.0,"coordinates":"37.7841561,-122.3966189"},{"property_type":"Condo\/Co-op","address":"2448 Lombard St #310","city":"San Francisco","state":"CA","zip":"94123","price":1768000,"beds":2.0,"baths":2.0,"neighborhoods":"Marina","square_feet":1141.0,"price_per_square_feet":1550.0,"hoa\/month":683.0,"lat":37.7993307,"lng":-122.4420593,"built_year":2020.0,"coordinates":"37.799330700000006,-122.44205929999998"},{"property_type":"Condo\/Co-op","address":"2448 Lombard St #201","city":"San Francisco","state":"CA","zip":"94123","price":988000,"beds":1.0,"baths":1.0,"neighborhoods":"Marina","square_feet":733.0,"price_per_square_feet":1348.0,"hoa\/month":602.0,"lat":37.7993307,"lng":-122.4420593,"built_year":2020.0,"coordinates":"37.799330700000006,-122.44205929999998"},{"property_type":"Single Family Residential","address":"1058-1060 Fulton St","city":"San Francisco","state":"CA","zip":"94117","price":4998000,"beds":7.0,"baths":5.0,"neighborhoods":"Alamo Square","square_feet":null,"price_per_square_feet":null,"hoa\/month":null,"lat":37.7775622,"lng":-122.4342179,"built_year":1911.0,"coordinates":"37.777562200000006,-122.43421790000001"},{"property_type":"Single Family Residential","address":"906 Capitol Ave","city":"San Francisco","state":"CA","zip":"94112","price":828000,"beds":2.0,"baths":1.0,"neighborhoods":"Ingleside","square_feet":null,"price_per_square_feet":null,"hoa\/month":null,"lat":37.718413,"lng":-122.459042,"built_year":1922.0,"coordinates":"37.718413,-122.459042"},{"property_type":"Condo\/Co-op","address":"3641 Webster","city":"San Francisco","state":"CA","zip":"94117","price":1895000,"beds":2.0,"baths":1.5,"neighborhoods":"Marina","square_feet":1605.0,"price_per_square_feet":1181.0,"hoa\/month":437.0,"lat":37.804322,"lng":-122.435565,"built_year":null,"coordinates":"37.804322,-122.435565"},{"property_type":"Condo\/Co-op","address":"232 Castro St #2","city":"San Francisco","state":"CA","zip":"94114","price":1875000,"beds":2.0,"baths":2.0,"neighborhoods":"Duboce Triangle","square_feet":1844.0,"price_per_square_feet":1017.0,"hoa\/month":583.0,"lat":37.7651627,"lng":-122.4357522,"built_year":1997.0,"coordinates":"37.765162700000005,-122.43575220000001"},{"property_type":"Single Family Residential","address":"308 Los Palmos Dr","city":"San Francisco","state":"CA","zip":"94127","price":1250000,"beds":2.0,"baths":1.0,"neighborhoods":"Miraloma Park","square_feet":null,"price_per_square_feet":null,"hoa\/month":null,"lat":37.7359723,"lng":-122.4502996,"built_year":1960.0,"coordinates":"37.7359723,-122.45029960000001"},{"property_type":"Condo\/Co-op","address":"1462 Broadway","city":"San Francisco","state":"CA","zip":"94109","price":1195000,"beds":2.0,"baths":2.0,"neighborhoods":"Nob Hill","square_feet":1171.0,"price_per_square_feet":1020.0,"hoa\/month":572.0,"lat":37.796168,"lng":-122.421171,"built_year":1909.0,"coordinates":"37.796168,-122.421171"},{"property_type":"Condo\/Co-op","address":"170 King St #601","city":"San Francisco","state":"CA","zip":"94107","price":1299999,"beds":2.0,"baths":2.0,"neighborhoods":"South Beach","square_feet":1005.0,"price_per_square_feet":1294.0,"hoa\/month":752.0,"lat":37.7789817,"lng":-122.3917515,"built_year":2007.0,"coordinates":"37.7789817,-122.39175149999998"},{"property_type":"Single Family Residential","address":"1968 Greenwich St","city":"San Francisco","state":"CA","zip":"94123","price":3425000,"beds":3.0,"baths":2.5,"neighborhoods":"Cow Hollow","square_feet":2418.0,"price_per_square_feet":1416.0,"hoa\/month":200.0,"lat":37.799718,"lng":-122.432113,"built_year":1900.0,"coordinates":"37.799718,-122.43211299999999"},{"property_type":"Condo\/Co-op","address":"1966 Greenwich St","city":"San Francisco","state":"CA","zip":"94123","price":1400000,"beds":2.0,"baths":1.5,"neighborhoods":"Cow Hollow","square_feet":1066.0,"price_per_square_feet":1313.0,"hoa\/month":100.0,"lat":37.7996649,"lng":-122.4321307,"built_year":1900.0,"coordinates":"37.799664899999996,-122.4321307"},{"property_type":"Single Family Residential","address":"4330 19th St","city":"San Francisco","state":"CA","zip":"94114","price":2195000,"beds":3.0,"baths":1.5,"neighborhoods":"Eureka Valley\/Dolore","square_feet":1845.0,"price_per_square_feet":1190.0,"hoa\/month":null,"lat":37.759306,"lng":-122.437727,"built_year":1906.0,"coordinates":"37.759306,-122.437727"},{"property_type":"Condo\/Co-op","address":"870 Harrison St #203","city":"SAN FRANCISCO","state":"CA","zip":"94107","price":688000,"beds":1.0,"baths":1.0,"neighborhoods":"SAN FRANCISCO","square_feet":531.0,"price_per_square_feet":1296.0,"hoa\/month":598.0,"lat":37.7797425,"lng":-122.4013573,"built_year":2015.0,"coordinates":"37.7797425,-122.40135729999999"},{"property_type":"Condo\/Co-op","address":"950 Tennessee St #109","city":"San Francisco","state":"CA","zip":"94107","price":929000,"beds":1.0,"baths":1.0,"neighborhoods":"Central Waterfront","square_feet":777.0,"price_per_square_feet":1196.0,"hoa\/month":544.0,"lat":37.7596747,"lng":-122.3898245,"built_year":2020.0,"coordinates":"37.759674700000005,-122.38982450000002"},{"property_type":"Condo\/Co-op","address":"3953 24th St #1","city":"San Francisco","state":"CA","zip":"94114","price":799000,"beds":1.0,"baths":2.0,"neighborhoods":"Noe Valley","square_feet":813.0,"price_per_square_feet":983.0,"hoa\/month":625.0,"lat":37.7512478,"lng":-122.4307834,"built_year":2004.0,"coordinates":"37.751247799999994,-122.43078340000001"},{"property_type":"Condo\/Co-op","address":"710 Arguello Blvd","city":"San Francisco","state":"CA","zip":"94118","price":1445000,"beds":3.0,"baths":3.0,"neighborhoods":"Lone Mountain","square_feet":1375.0,"price_per_square_feet":1051.0,"hoa\/month":395.0,"lat":37.7769035,"lng":-122.4583089,"built_year":1919.0,"coordinates":"37.776903499999996,-122.45830890000002"},{"property_type":"Single Family Residential","address":"26 Maddux Ave","city":"San Francisco","state":"CA","zip":"94124","price":1400000,"beds":4.0,"baths":2.0,"neighborhoods":"Silver Terrace","square_feet":1860.0,"price_per_square_feet":753.0,"hoa\/month":null,"lat":37.7348067,"lng":-122.3984875,"built_year":1941.0,"coordinates":"37.73480670000001,-122.3984875"},{"property_type":"Single Family Residential","address":"2614 25th Ave","city":"San Francisco","state":"CA","zip":"94116","price":1149000,"beds":3.0,"baths":1.0,"neighborhoods":"Parkside","square_feet":1300.0,"price_per_square_feet":884.0,"hoa\/month":null,"lat":37.7387219,"lng":-122.481629,"built_year":1947.0,"coordinates":"37.7387219,-122.481629"},{"property_type":"Multi-Family (2-4 Unit)","address":"969-971 Oak St","city":"San Francisco","state":"CA","zip":"94117","price":2150000,"beds":5.0,"baths":2.0,"neighborhoods":"Hayes Valley","square_feet":2227.0,"price_per_square_feet":965.0,"hoa\/month":null,"lat":37.7731313,"lng":-122.4351738,"built_year":1900.0,"coordinates":"37.773131299999996,-122.43517379999999"},{"property_type":"Townhouse","address":"200 Dolores St #3","city":"San Francisco","state":"CA","zip":"94103","price":1749000,"beds":2.0,"baths":2.5,"neighborhoods":"Mission Dolores","square_feet":1441.0,"price_per_square_feet":1214.0,"hoa\/month":727.0,"lat":37.7660572,"lng":-122.4269225,"built_year":2014.0,"coordinates":"37.766057200000006,-122.4269225"},{"property_type":"Condo\/Co-op","address":"55 Red Rock Way Unit 110O","city":"San Francisco","state":"CA","zip":"94131","price":489000,"beds":0.0,"baths":1.0,"neighborhoods":"Diamond Heights","square_feet":474.0,"price_per_square_feet":1032.0,"hoa\/month":491.0,"lat":37.7459864,"lng":-122.4410176,"built_year":1972.0,"coordinates":"37.7459864,-122.4410176"},{"property_type":"Condo\/Co-op","address":"1298 Treat Ave","city":"San Francisco","state":"CA","zip":"94110","price":1249000,"beds":4.0,"baths":2.0,"neighborhoods":"Inner Mission","square_feet":1250.0,"price_per_square_feet":999.0,"hoa\/month":360.0,"lat":37.7493778,"lng":-122.4127122,"built_year":1900.0,"coordinates":"37.7493778,-122.4127122"},{"property_type":"Condo\/Co-op","address":"1440 Broadway #304","city":"San Francisco","state":"CA","zip":"94109","price":799000,"beds":1.0,"baths":1.0,"neighborhoods":"Nob Hill","square_feet":685.0,"price_per_square_feet":1166.0,"hoa\/month":677.0,"lat":37.7963851,"lng":-122.4207265,"built_year":1982.0,"coordinates":"37.7963851,-122.42072649999999"},{"property_type":"Condo\/Co-op","address":"1625 Lake St","city":"San Francisco","state":"CA","zip":"94121","price":1549000,"beds":2.0,"baths":2.0,"neighborhoods":"Lake","square_feet":1577.0,"price_per_square_feet":982.0,"hoa\/month":200.0,"lat":37.785911,"lng":-122.4771297,"built_year":1995.0,"coordinates":"37.785911,-122.4771297"},{"property_type":"Condo\/Co-op","address":"1483 Oak St","city":"San Francisco","state":"CA","zip":"94117","price":1795000,"beds":3.0,"baths":2.5,"neighborhoods":"Haight Ashbury","square_feet":2584.0,"price_per_square_feet":695.0,"hoa\/month":250.0,"lat":37.772086,"lng":-122.443644,"built_year":1900.0,"coordinates":"37.772086,-122.44364399999999"},{"property_type":"Multi-Family (2-4 Unit)","address":"1029 Anza St","city":"San Francisco","state":"CA","zip":"94118","price":1495000,"beds":3.0,"baths":2.0,"neighborhoods":"Inner Richmond","square_feet":2300.0,"price_per_square_feet":650.0,"hoa\/month":null,"lat":37.7791099,"lng":-122.4593516,"built_year":1905.0,"coordinates":"37.7791099,-122.45935159999998"},{"property_type":"Single Family Residential","address":"32 Josiah Ave","city":"San Francisco","state":"CA","zip":"94112","price":799000,"beds":1.0,"baths":1.0,"neighborhoods":"Ingleside","square_feet":null,"price_per_square_feet":null,"hoa\/month":null,"lat":37.7186265,"lng":-122.4529937,"built_year":1900.0,"coordinates":"37.7186265,-122.4529937"},{"property_type":"Multi-Family (2-4 Unit)","address":"2637 Baker St","city":"San Francisco","state":"CA","zip":"94123","price":2998000,"beds":9.0,"baths":2.0,"neighborhoods":"Cow Hollow","square_feet":5055.0,"price_per_square_feet":593.0,"hoa\/month":null,"lat":37.7953907,"lng":-122.4456377,"built_year":1913.0,"coordinates":"37.7953907,-122.4456377"},{"property_type":"Condo\/Co-op","address":"435 China Basin St #521","city":"SAN FRANCISCO","state":"CA","zip":"94158","price":1550000,"beds":2.0,"baths":2.0,"neighborhoods":"SAN FRANCISCO","square_feet":1259.0,"price_per_square_feet":1231.0,"hoa\/month":783.0,"lat":37.7715936,"lng":-122.3885893,"built_year":2012.0,"coordinates":"37.771593599999996,-122.38858929999999"},{"property_type":"Condo\/Co-op","address":"2172 Pine St #2","city":"San Francisco","state":"CA","zip":"94115","price":1249000,"beds":1.0,"baths":1.0,"neighborhoods":"Lower Pacific Height","square_feet":1201.0,"price_per_square_feet":1040.0,"hoa\/month":330.0,"lat":37.7885051,"lng":-122.4315366,"built_year":1875.0,"coordinates":"37.7885051,-122.43153659999999"},{"property_type":"Multi-Family (5+ Unit)","address":"500-504 8th Ave","city":"San Francisco","state":"CA","zip":"94118","price":2868000,"beds":6.0,"baths":null,"neighborhoods":"Inner Richmond","square_feet":5015.0,"price_per_square_feet":572.0,"hoa\/month":null,"lat":37.7788932,"lng":-122.4661732,"built_year":1907.0,"coordinates":"37.778893200000006,-122.46617320000001"},{"property_type":"Condo\/Co-op","address":"188 Minna St Unit 32D","city":"San Francisco","state":"CA","zip":"94105","price":3849000,"beds":2.0,"baths":2.5,"neighborhoods":"Yerba Buena","square_feet":1792.0,"price_per_square_feet":2148.0,"hoa\/month":2744.0,"lat":37.7861462,"lng":-122.4013007,"built_year":2005.0,"coordinates":"37.786146200000005,-122.4013007"},{"property_type":"Condo\/Co-op","address":"494 Filbert St","city":"San Francisco","state":"CA","zip":"94133","price":1295000,"beds":2.0,"baths":1.0,"neighborhoods":"Telegraph Hill","square_feet":981.0,"price_per_square_feet":1320.0,"hoa\/month":120.0,"lat":37.8017553,"lng":-122.4077021,"built_year":1939.0,"coordinates":"37.801755299999996,-122.4077021"},{"property_type":"Single Family Residential","address":"421 Point Lobos Ave","city":"San Francisco","state":"CA","zip":"94121","price":1395000,"beds":2.0,"baths":2.0,"neighborhoods":"Outer Richmond","square_feet":1443.0,"price_per_square_feet":967.0,"hoa\/month":null,"lat":37.7796376,"lng":-122.5077261,"built_year":1941.0,"coordinates":"37.7796376,-122.5077261"},{"property_type":"Condo\/Co-op","address":"355 Bryant St #104","city":"San Francisco","state":"CA","zip":"94107","price":2495000,"beds":2.0,"baths":2.0,"neighborhoods":"South Beach","square_feet":2206.0,"price_per_square_feet":1131.0,"hoa\/month":950.0,"lat":37.7835506,"lng":-122.3924215,"built_year":1917.0,"coordinates":"37.7835506,-122.39242150000001"},{"property_type":"Single Family Residential","address":"530 Crescent Ave","city":"San Francisco","state":"CA","zip":"94110","price":1179000,"beds":2.0,"baths":1.0,"neighborhoods":"Bernal Heights","square_feet":1125.0,"price_per_square_feet":1048.0,"hoa\/month":null,"lat":37.7347192,"lng":-122.415745,"built_year":1938.0,"coordinates":"37.7347192,-122.415745"},{"property_type":"Condo\/Co-op","address":"1410 Shrader St","city":"San Francisco","state":"CA","zip":"94117","price":1645000,"beds":2.0,"baths":1.5,"neighborhoods":"Parnassus\/Ashbury Heights","square_feet":1607.0,"price_per_square_feet":1024.0,"hoa\/month":170.0,"lat":37.762191,"lng":-122.450426,"built_year":1916.0,"coordinates":"37.762190999999994,-122.45042600000001"},{"property_type":"Condo\/Co-op","address":"400 Beale St #506","city":"San Francisco","state":"CA","zip":"94105","price":1049000,"beds":2.0,"baths":1.0,"neighborhoods":"South Beach","square_feet":1038.0,"price_per_square_feet":1011.0,"hoa\/month":null,"lat":37.7869049,"lng":-122.3909202,"built_year":2002.0,"coordinates":"37.7869049,-122.39092020000001"},{"property_type":"Condo\/Co-op","address":"1788 Clay St #304","city":"San Francisco","state":"CA","zip":"94109","price":1350000,"beds":2.0,"baths":2.0,"neighborhoods":"Nob Hill","square_feet":975.0,"price_per_square_feet":1385.0,"hoa\/month":723.0,"lat":37.7925699,"lng":-122.4222498,"built_year":2014.0,"coordinates":"37.7925699,-122.42224979999999"},{"property_type":"Condo\/Co-op","address":"178 Randall St","city":"San Francisco","state":"CA","zip":"94131","price":1695000,"beds":2.0,"baths":2.5,"neighborhoods":"Glen Park","square_feet":1465.0,"price_per_square_feet":1157.0,"hoa\/month":392.0,"lat":37.7398549,"lng":-122.4274019,"built_year":2008.0,"coordinates":"37.7398549,-122.4274019"},{"property_type":"Condo\/Co-op","address":"250 King St #952","city":"San Francisco","state":"CA","zip":"94107","price":2399000,"beds":3.0,"baths":3.0,"neighborhoods":"Mission Bay","square_feet":2450.0,"price_per_square_feet":979.0,"hoa\/month":1812.0,"lat":37.7776422,"lng":-122.3934181,"built_year":2004.0,"coordinates":"37.7776422,-122.39341809999999"},{"property_type":"Condo\/Co-op","address":"1895 Pacific Ave #104","city":"San Francisco","state":"CA","zip":"94109","price":599000,"beds":0.0,"baths":1.0,"neighborhoods":"Pacific Heights","square_feet":512.0,"price_per_square_feet":1170.0,"hoa\/month":440.0,"lat":37.7941676,"lng":-122.4262431,"built_year":1931.0,"coordinates":"37.7941676,-122.4262431"},{"property_type":"Single Family Residential","address":"710 Laguna Honda Blvd","city":"SAN FRANCISCO","state":"CA","zip":"94127","price":1199000,"beds":3.0,"baths":1.0,"neighborhoods":"SAN FRANCISCO","square_feet":1471.0,"price_per_square_feet":815.0,"hoa\/month":null,"lat":37.7445699,"lng":-122.4570518,"built_year":1927.0,"coordinates":"37.744569899999995,-122.45705179999999"},{"property_type":"Single Family Residential","address":"58507 Dowville West","city":"Huntington Lake","state":"CA","zip":"93634","price":119000,"beds":1.0,"baths":1.0,"neighborhoods":"Huntington Lake","square_feet":608.0,"price_per_square_feet":196.0,"hoa\/month":49.0,"lat":37.782381,"lng":-122.41655,"built_year":null,"coordinates":"37.782381,-122.41655"},{"property_type":"Single Family Residential","address":"52 Santa Marina St","city":"San Francisco","state":"CA","zip":"94110","price":1645000,"beds":3.0,"baths":2.0,"neighborhoods":"Bernal Heights","square_feet":1601.0,"price_per_square_feet":1027.0,"hoa\/month":null,"lat":37.739964,"lng":-122.422037,"built_year":1909.0,"coordinates":"37.739964,-122.42203700000002"},{"property_type":"Condo\/Co-op","address":"2031 Hayes St","city":"San Francisco","state":"CA","zip":"94117","price":1935000,"beds":3.0,"baths":2.5,"neighborhoods":"San Francisco County","square_feet":1670.0,"price_per_square_feet":1159.0,"hoa\/month":null,"lat":37.77335709,"lng":-122.4499369,"built_year":1910.0,"coordinates":"37.773357085,-122.4499369"},{"property_type":"Single Family Residential","address":"81 Pinehurst Way","city":"San Francisco","state":"CA","zip":"94127","price":1849000,"beds":4.0,"baths":3.0,"neighborhoods":"Mount Davidson Manor","square_feet":2468.0,"price_per_square_feet":749.0,"hoa\/month":null,"lat":37.728052,"lng":-122.4652006,"built_year":1928.0,"coordinates":"37.728052000000005,-122.4652006"},{"property_type":"Single Family Residential","address":"2 Lake Forest Ct","city":"San Francisco","state":"CA","zip":"94131","price":1495000,"beds":3.0,"baths":2.0,"neighborhoods":"Forest Knolls","square_feet":1408.0,"price_per_square_feet":1062.0,"hoa\/month":null,"lat":37.7545778,"lng":-122.460004,"built_year":1961.0,"coordinates":"37.7545778,-122.460004"},{"property_type":"Condo\/Co-op","address":"1080 Chestnut St Unit 11B","city":"San Francisco","state":"CA","zip":"94109","price":3395000,"beds":3.0,"baths":2.5,"neighborhoods":"Russian Hill","square_feet":2105.0,"price_per_square_feet":1613.0,"hoa\/month":3122.0,"lat":37.803057,"lng":-122.4210212,"built_year":1962.0,"coordinates":"37.803057,-122.42102120000001"},{"property_type":"Condo\/Co-op","address":"49 Zoe St #6","city":"San Francisco","state":"CA","zip":"94107","price":879000,"beds":1.0,"baths":1.5,"neighborhoods":"South Beach","square_feet":987.0,"price_per_square_feet":891.0,"hoa\/month":550.0,"lat":37.7800761,"lng":-122.3960123,"built_year":1997.0,"coordinates":"37.7800761,-122.3960123"},{"property_type":"Single Family Residential","address":"537 Magellan Ave","city":"San Francisco","state":"CA","zip":"94116","price":2275000,"beds":5.0,"baths":3.5,"neighborhoods":"Forest Hill","square_feet":2944.0,"price_per_square_feet":773.0,"hoa\/month":null,"lat":37.7440274,"lng":-122.4669143,"built_year":1920.0,"coordinates":"37.7440274,-122.4669143"},{"property_type":"Condo\/Co-op","address":"436-440 Scott St #438","city":"San Francisco","state":"CA","zip":"94117","price":1549000,"beds":3.0,"baths":2.5,"neighborhoods":"Hayes Valley","square_feet":1354.0,"price_per_square_feet":1144.0,"hoa\/month":350.0,"lat":37.7738902,"lng":-122.4355022,"built_year":1895.0,"coordinates":"37.7738902,-122.43550220000002"},{"property_type":"Condo\/Co-op","address":"1300 22nd St #107","city":"San Francisco","state":"CA","zip":"94107","price":795000,"beds":1.0,"baths":1.0,"neighborhoods":"Potrero Hill","square_feet":565.0,"price_per_square_feet":1407.0,"hoa\/month":568.0,"lat":37.7578379,"lng":-122.3944714,"built_year":2016.0,"coordinates":"37.7578379,-122.39447140000001"},{"property_type":"Condo\/Co-op","address":"200 Brannan St #234","city":"San Francisco","state":"CA","zip":"94107","price":1995000,"beds":2.0,"baths":2.0,"neighborhoods":"South Beach","square_feet":1892.0,"price_per_square_feet":1054.0,"hoa\/month":910.0,"lat":37.7836002,"lng":-122.3907074,"built_year":2004.0,"coordinates":"37.7836002,-122.3907074"},{"property_type":"Condo\/Co-op","address":"1776 Sacramento St #708","city":"San Francisco","state":"CA","zip":"94109","price":1498000,"beds":3.0,"baths":2.0,"neighborhoods":"Nob Hill","square_feet":1526.0,"price_per_square_feet":982.0,"hoa\/month":890.0,"lat":37.7916183,"lng":-122.4220982,"built_year":1992.0,"coordinates":"37.791618299999996,-122.42209820000001"},{"property_type":"Condo\/Co-op","address":"338 Spear St Unit 16G","city":"San Francisco","state":"CA","zip":"94105","price":999000,"beds":1.0,"baths":1.0,"neighborhoods":"South Beach","square_feet":807.0,"price_per_square_feet":1238.0,"hoa\/month":891.0,"lat":37.7894137,"lng":-122.3906433,"built_year":2009.0,"coordinates":"37.789413700000004,-122.3906433"},{"property_type":"Multi-Family (2-4 Unit)","address":"237 San Jose Ave","city":"San Francisco","state":"CA","zip":"94110","price":2800000,"beds":11.0,"baths":4.5,"neighborhoods":"Noe Valley","square_feet":4800.0,"price_per_square_feet":583.0,"hoa\/month":null,"lat":37.7514387,"lng":-122.4212597,"built_year":1904.0,"coordinates":"37.7514387,-122.42125970000001"},{"property_type":"Multi-Family (2-4 Unit)","address":"170 Pfeiffer St","city":"San Francisco","state":"CA","zip":"94133","price":5400000,"beds":6.0,"baths":4.5,"neighborhoods":"Telegraph Hill","square_feet":null,"price_per_square_feet":null,"hoa\/month":null,"lat":37.8048306,"lng":-122.4096277,"built_year":null,"coordinates":"37.8048306,-122.4096277"},{"property_type":"Condo\/Co-op","address":"301 Main St Unit 7C","city":"San Francisco","state":"CA","zip":"94105","price":2099000,"beds":3.0,"baths":2.5,"neighborhoods":"South Beach","square_feet":1752.0,"price_per_square_feet":1198.0,"hoa\/month":1059.0,"lat":37.7895974,"lng":-122.3911965,"built_year":2008.0,"coordinates":"37.7895974,-122.3911965"},{"property_type":"Condo\/Co-op","address":"72 Townsend St #401","city":"San Francisco","state":"CA","zip":"94107","price":1029000,"beds":1.0,"baths":1.0,"neighborhoods":"South Beach","square_feet":788.0,"price_per_square_feet":1306.0,"hoa\/month":792.0,"lat":37.781388,"lng":-122.3903525,"built_year":2015.0,"coordinates":"37.781388,-122.39035249999999"},{"property_type":"Townhouse","address":"232 Friedell St","city":"San Francisco","state":"CA","zip":"94124","price":799999,"beds":2.0,"baths":2.0,"neighborhoods":"Hunters Point","square_feet":null,"price_per_square_feet":null,"hoa\/month":271.0,"lat":37.728432,"lng":-122.3701131,"built_year":2016.0,"coordinates":"37.728432,-122.37011310000001"},{"property_type":"Condo\/Co-op","address":"439 Greenwich St #9","city":"San Francisco","state":"CA","zip":"94133","price":750000,"beds":1.0,"baths":1.0,"neighborhoods":"Telegraph Hill","square_feet":535.0,"price_per_square_feet":1402.0,"hoa\/month":525.0,"lat":37.8023778,"lng":-122.4070114,"built_year":1979.0,"coordinates":"37.8023778,-122.4070114"},{"property_type":"Condo\/Co-op","address":"456 Carl St","city":"San Francisco","state":"CA","zip":"94117","price":1199000,"beds":3.0,"baths":2.0,"neighborhoods":"Parnassus\/Ashbury Heights","square_feet":1271.0,"price_per_square_feet":943.0,"hoa\/month":485.0,"lat":37.765018,"lng":-122.4569962,"built_year":1990.0,"coordinates":"37.765018,-122.4569962"},{"property_type":"Townhouse","address":"77 Dow Pl #711","city":"San Francisco","state":"CA","zip":"94107","price":1025000,"beds":1.0,"baths":1.5,"neighborhoods":"Yerba Buena","square_feet":1293.0,"price_per_square_feet":793.0,"hoa\/month":896.0,"lat":37.7841561,"lng":-122.3966189,"built_year":2002.0,"coordinates":"37.7841561,-122.3966189"},{"property_type":"Condo\/Co-op","address":"2100 Green St #704","city":"San Francisco","state":"CA","zip":"94123","price":3495000,"beds":2.0,"baths":2.0,"neighborhoods":"Pacific Heights","square_feet":1866.0,"price_per_square_feet":1873.0,"hoa\/month":1618.0,"lat":37.7965894,"lng":-122.4339807,"built_year":1928.0,"coordinates":"37.796589399999995,-122.4339807"},{"property_type":"Single Family Residential","address":"124 Miguel St","city":"San Francisco","state":"CA","zip":"94131","price":1395000,"beds":2.0,"baths":2.0,"neighborhoods":"Glen Park","square_feet":1550.0,"price_per_square_feet":900.0,"hoa\/month":null,"lat":37.7379423,"lng":-122.4286419,"built_year":1903.0,"coordinates":"37.73794229999999,-122.4286419"},{"property_type":"Single Family Residential","address":"627 16th Ave","city":"San Francisco","state":"CA","zip":"94118","price":1350000,"beds":3.0,"baths":1.0,"neighborhoods":"Central Richmond","square_feet":2076.0,"price_per_square_feet":650.0,"hoa\/month":null,"lat":37.776172,"lng":-122.475109,"built_year":1918.0,"coordinates":"37.776171999999995,-122.475109"},{"property_type":"Single Family Residential","address":"3467 Pacific Ave","city":"San Francisco","state":"CA","zip":"94118","price":8950000,"beds":6.0,"baths":6.0,"neighborhoods":"Presidio Heights","square_feet":5625.0,"price_per_square_feet":1591.0,"hoa\/month":null,"lat":37.7908948,"lng":-122.4520759,"built_year":1909.0,"coordinates":"37.7908948,-122.45207590000001"},{"property_type":"Single Family Residential","address":"109 Joost Ave","city":"San Francisco","state":"CA","zip":"94131","price":1028000,"beds":2.0,"baths":1.0,"neighborhoods":"Sunnyside","square_feet":903.0,"price_per_square_feet":1138.0,"hoa\/month":null,"lat":37.7322456,"lng":-122.4378105,"built_year":1923.0,"coordinates":"37.7322456,-122.4378105"},{"property_type":"Condo\/Co-op","address":"555 4th St #913","city":"San Francisco","state":"CA","zip":"94107","price":1288000,"beds":2.0,"baths":2.0,"neighborhoods":"South Beach","square_feet":907.0,"price_per_square_feet":1420.0,"hoa\/month":664.0,"lat":37.7794218,"lng":-122.3967124,"built_year":2006.0,"coordinates":"37.7794218,-122.39671240000001"},{"property_type":"Condo\/Co-op","address":"99 Rausch St #320","city":"San Francisco","state":"CA","zip":"94103","price":659000,"beds":0.0,"baths":1.0,"neighborhoods":"South of Market","square_feet":null,"price_per_square_feet":null,"hoa\/month":515.0,"lat":37.7762348,"lng":-122.4090223,"built_year":2017.0,"coordinates":"37.7762348,-122.4090223"},{"property_type":"Condo\/Co-op","address":"52 Innes Ct #203","city":"San Francisco","state":"CA","zip":"94124","price":649888,"beds":1.0,"baths":1.0,"neighborhoods":"Hunters Point","square_feet":670.0,"price_per_square_feet":970.0,"hoa\/month":460.0,"lat":37.7276224,"lng":-122.3674287,"built_year":2017.0,"coordinates":"37.7276224,-122.3674287"},{"property_type":"Condo\/Co-op","address":"175 Red Rock Way Unit 207K","city":"San Francisco","state":"CA","zip":"94131","price":529000,"beds":0.0,"baths":1.0,"neighborhoods":"Diamond Heights","square_feet":592.0,"price_per_square_feet":894.0,"hoa\/month":492.0,"lat":37.745807,"lng":-122.442069,"built_year":1972.0,"coordinates":"37.745807,-122.44206899999999"},{"property_type":"Condo\/Co-op","address":"1047 Mississippi St #9","city":"San Francisco","state":"CA","zip":"94107","price":949000,"beds":1.0,"baths":1.5,"neighborhoods":"Potrero Hill","square_feet":1385.0,"price_per_square_feet":685.0,"hoa\/month":526.0,"lat":37.7531638,"lng":-122.3933731,"built_year":2001.0,"coordinates":"37.753163799999996,-122.39337309999999"},{"property_type":"Single Family Residential","address":"320 Ocean Ave","city":"San Francisco","state":"CA","zip":"94112-2532","price":1498888,"beds":5.0,"baths":3.0,"neighborhoods":"Mission Terrace","square_feet":2432.0,"price_per_square_feet":616.0,"hoa\/month":null,"lat":37.7232378,"lng":-122.4436053,"built_year":1931.0,"coordinates":"37.7232378,-122.4436053"},{"property_type":"Single Family Residential","address":"715 Foerster St","city":"San Francisco","state":"CA","zip":"94127","price":1735000,"beds":4.0,"baths":2.5,"neighborhoods":"Miraloma Park","square_feet":1909.0,"price_per_square_feet":909.0,"hoa\/month":25.0,"lat":37.734141,"lng":-122.449219,"built_year":1960.0,"coordinates":"37.734140999999994,-122.449219"},{"property_type":"Condo\/Co-op","address":"501 Crescent Way #5107","city":"San Francisco","state":"CA","zip":"94134","price":728000,"beds":2.0,"baths":2.0,"neighborhoods":"Candlestick Point","square_feet":1095.0,"price_per_square_feet":665.0,"hoa\/month":540.0,"lat":37.7119288,"lng":-122.3886055,"built_year":2006.0,"coordinates":"37.711928799999995,-122.3886055"},{"property_type":"Condo\/Co-op","address":"875 Indiana St #324","city":"San Francisco","state":"CA","zip":"94107","price":975000,"beds":1.0,"baths":1.5,"neighborhoods":"Central Waterfront","square_feet":852.0,"price_per_square_feet":1144.0,"hoa\/month":523.0,"lat":37.7596716,"lng":-122.3908629,"built_year":2009.0,"coordinates":"37.759671600000004,-122.3908629"},{"property_type":"Single Family Residential","address":null,"city":"San Francisco","state":"CA","zip":"94124","price":925000,"beds":3.0,"baths":1.0,"neighborhoods":"Bayview","square_feet":1155.0,"price_per_square_feet":801.0,"hoa\/month":null,"lat":37.7315866,"lng":-122.3860899,"built_year":1961.0,"coordinates":"37.73158660000001,-122.3860899"},{"property_type":"Single Family Residential","address":"1710 Diamond St","city":"San Francisco","state":"CA","zip":"94131","price":4498800,"beds":4.0,"baths":3.5,"neighborhoods":"Noe Valley","square_feet":3645.0,"price_per_square_feet":1234.0,"hoa\/month":null,"lat":37.7438471,"lng":-122.4358179,"built_year":2014.0,"coordinates":"37.7438471,-122.4358179"},{"property_type":"Condo\/Co-op","address":"235 Berry St #201","city":"San Francisco","state":"CA","zip":"94158","price":899000,"beds":1.0,"baths":1.0,"neighborhoods":"Mission Bay","square_feet":840.0,"price_per_square_feet":1070.0,"hoa\/month":689.0,"lat":37.774703,"lng":-122.3940893,"built_year":2007.0,"coordinates":"37.774703,-122.39408929999999"},{"property_type":"Single Family Residential","address":"1 Byron Ct","city":"San Francisco","state":"CA","zip":"94112","price":1388000,"beds":4.0,"baths":3.0,"neighborhoods":"Crocker Amazon","square_feet":2003.0,"price_per_square_feet":693.0,"hoa\/month":null,"lat":37.7096358,"lng":-122.4433842,"built_year":1978.0,"coordinates":"37.709635799999994,-122.4433842"},{"property_type":"Single Family Residential","address":"439 E Princeton St","city":"San Francisco","state":"CA","zip":"94134","price":999000,"beds":4.0,"baths":2.5,"neighborhoods":"Portola","square_feet":1306.0,"price_per_square_feet":765.0,"hoa\/month":null,"lat":37.7243406,"lng":-122.4140636,"built_year":1949.0,"coordinates":"37.724340600000005,-122.41406359999999"},{"property_type":"Condo\/Co-op","address":"3731 Fillmore St #6","city":"San Francisco","state":"CA","zip":"94123","price":995000,"beds":1.0,"baths":1.0,"neighborhoods":"Marina","square_feet":792.0,"price_per_square_feet":1256.0,"hoa\/month":430.0,"lat":37.8049149,"lng":-122.4375445,"built_year":1928.0,"coordinates":"37.8049149,-122.4375445"},{"property_type":"Single Family Residential","address":"4118 20th St","city":"San Francisco","state":"CA","zip":"94114","price":3350000,"beds":4.0,"baths":3.5,"neighborhoods":"Eureka Valley\/Dolore","square_feet":2287.0,"price_per_square_feet":1465.0,"hoa\/month":null,"lat":37.7579691,"lng":-122.4329885,"built_year":1905.0,"coordinates":"37.7579691,-122.43298850000001"},{"property_type":"Single Family Residential","address":"532 Lyon St","city":"San Francisco","state":"CA","zip":"94117","price":4695000,"beds":5.0,"baths":4.5,"neighborhoods":"North Panhandle","square_feet":3919.0,"price_per_square_feet":1198.0,"hoa\/month":null,"lat":37.7758013,"lng":-122.4427128,"built_year":1904.0,"coordinates":"37.7758013,-122.44271280000001"},{"property_type":"Condo\/Co-op","address":"1140 Page St","city":"San Francisco","state":"CA","zip":"94117","price":2289000,"beds":3.0,"baths":2.0,"neighborhoods":"Haight Ashbury","square_feet":1850.0,"price_per_square_feet":1237.0,"hoa\/month":510.0,"lat":37.7721199,"lng":-122.4395674,"built_year":2012.0,"coordinates":"37.7721199,-122.43956740000002"},{"property_type":"Condo\/Co-op","address":"750 Lake St","city":"San Francisco","state":"CA","zip":"94118","price":1895000,"beds":2.0,"baths":2.0,"neighborhoods":"Lake","square_feet":null,"price_per_square_feet":null,"hoa\/month":null,"lat":37.7867156,"lng":-122.4677246,"built_year":null,"coordinates":"37.7867156,-122.46772460000001"},{"property_type":"Single Family Residential","address":"137 Ashton Ave","city":"San Francisco","state":"CA","zip":"94112","price":1595000,"beds":3.0,"baths":2.5,"neighborhoods":"Merced Heights","square_feet":1605.0,"price_per_square_feet":994.0,"hoa\/month":null,"lat":37.7207164,"lng":-122.4624475,"built_year":1924.0,"coordinates":"37.7207164,-122.46244750000001"},{"property_type":"Condo\/Co-op","address":"1832 Page St #2","city":"San Francisco","state":"CA","zip":"94117","price":995000,"beds":2.0,"baths":2.0,"neighborhoods":"Haight Ashbury","square_feet":990.0,"price_per_square_feet":1005.0,"hoa\/month":409.0,"lat":37.7706724,"lng":-122.4510696,"built_year":1900.0,"coordinates":"37.7706724,-122.4510696"},{"property_type":"Condo\/Co-op","address":"3395 Market St","city":"San Francisco","state":"CA","zip":"94114","price":825000,"beds":1.0,"baths":1.0,"neighborhoods":"Eureka Valley\/Dolore","square_feet":742.0,"price_per_square_feet":1112.0,"hoa\/month":396.0,"lat":37.7579936,"lng":-122.4430826,"built_year":1906.0,"coordinates":"37.7579936,-122.44308259999998"},{"property_type":"Single Family Residential","address":"1089 Clayton St","city":"San Francisco","state":"CA","zip":"94117","price":2190000,"beds":3.0,"baths":2.0,"neighborhoods":"Buena Vista Park","square_feet":1615.0,"price_per_square_feet":1356.0,"hoa\/month":null,"lat":37.7627947,"lng":-122.4471883,"built_year":1941.0,"coordinates":"37.76279470000001,-122.4471883"},{"property_type":"Condo\/Co-op","address":"1 Hawthorne St Unit 6J","city":"San Francisco","state":"CA","zip":"94105","price":1395000,"beds":2.0,"baths":2.0,"neighborhoods":"Yerba Buena","square_feet":1247.0,"price_per_square_feet":1119.0,"hoa\/month":1269.0,"lat":37.7857356,"lng":-122.3989521,"built_year":2010.0,"coordinates":"37.7857356,-122.39895209999999"},{"property_type":"Single Family Residential","address":"326 Brunswick St","city":"San Francisco","state":"CA","zip":"94112","price":1498000,"beds":4.0,"baths":3.0,"neighborhoods":"Crocker Amazon","square_feet":null,"price_per_square_feet":null,"hoa\/month":null,"lat":37.7112595,"lng":-122.4416479,"built_year":1942.0,"coordinates":"37.7112595,-122.4416479"},{"property_type":"Single Family Residential","address":"40 Hanover St","city":"SAN FRANCISCO","state":"CA","zip":"94112","price":998000,"beds":2.0,"baths":1.0,"neighborhoods":"SAN FRANCISCO","square_feet":818.0,"price_per_square_feet":1220.0,"hoa\/month":null,"lat":37.7101765,"lng":-122.440283,"built_year":1946.0,"coordinates":"37.7101765,-122.44028300000001"},{"property_type":"Condo\/Co-op","address":"471 Jersey St","city":"San Francisco","state":"CA","zip":"94114","price":1779000,"beds":3.0,"baths":1.5,"neighborhoods":"Noe Valley","square_feet":1555.0,"price_per_square_feet":1144.0,"hoa\/month":400.0,"lat":37.7501559,"lng":-122.435556,"built_year":1923.0,"coordinates":"37.7501559,-122.435556"},{"property_type":"Townhouse","address":"1736 A 20th Ave","city":"San Francisco","state":"CA","zip":"94122","price":1450000,"beds":3.0,"baths":3.0,"neighborhoods":"Central Sunset","square_feet":2225.0,"price_per_square_feet":652.0,"hoa\/month":270.0,"lat":37.755423,"lng":-122.477333,"built_year":2001.0,"coordinates":"37.755423,-122.477333"},{"property_type":"Multi-Family (2-4 Unit)","address":"243-245 Corbett Ave","city":"San Francisco","state":"CA","zip":"94114","price":1998000,"beds":4.0,"baths":4.0,"neighborhoods":"Corona Heights","square_feet":2868.0,"price_per_square_feet":697.0,"hoa\/month":null,"lat":37.7612334,"lng":-122.4436419,"built_year":1975.0,"coordinates":"37.761233399999995,-122.4436419"},{"property_type":"Condo\/Co-op","address":"2049 Ellis St","city":"San Francisco","state":"CA","zip":"94115","price":1595000,"beds":3.0,"baths":2.0,"neighborhoods":"Anza Vista","square_feet":2001.0,"price_per_square_feet":797.0,"hoa\/month":305.0,"lat":37.7811329,"lng":-122.439895,"built_year":1902.0,"coordinates":"37.781132899999996,-122.43989499999999"},{"property_type":"Multi-Family (2-4 Unit)","address":"5139-5141 Geary Blvd","city":"San Francisco","state":"CA","zip":"94118","price":1995000,"beds":4.0,"baths":4.5,"neighborhoods":"Central Richmond","square_feet":3180.0,"price_per_square_feet":627.0,"hoa\/month":null,"lat":37.7802735,"lng":-122.4746988,"built_year":1921.0,"coordinates":"37.7802735,-122.47469879999998"},{"property_type":"Single Family Residential","address":"27 Starview Way","city":"San Francisco","state":"CA","zip":"94131","price":1395000,"beds":2.0,"baths":1.0,"neighborhoods":"Midtown Terrace","square_feet":1062.0,"price_per_square_feet":1314.0,"hoa\/month":null,"lat":37.7500012,"lng":-122.4517442,"built_year":1956.0,"coordinates":"37.75000120000001,-122.45174420000001"},{"property_type":"Condo\/Co-op","address":"446 Collingwood St","city":"San Francisco","state":"CA","zip":"94114","price":1995000,"beds":3.0,"baths":2.0,"neighborhoods":"Eureka Valley\/Dolore","square_feet":1570.0,"price_per_square_feet":1271.0,"hoa\/month":117.0,"lat":37.7552395,"lng":-122.4358996,"built_year":1968.0,"coordinates":"37.7552395,-122.4358996"},{"property_type":"Single Family Residential","address":"1374 46th Ave","city":"San Francisco","state":"CA","zip":"94122","price":1098000,"beds":8.0,"baths":3.0,"neighborhoods":"Outer Sunset","square_feet":2204.0,"price_per_square_feet":498.0,"hoa\/month":null,"lat":37.7609266,"lng":-122.5057497,"built_year":1915.0,"coordinates":"37.7609266,-122.5057497"},{"property_type":"Single Family Residential","address":"649 28th St","city":"San Francisco","state":"CA","zip":"94131","price":1700000,"beds":2.0,"baths":1.0,"neighborhoods":"Noe Valley","square_feet":1138.0,"price_per_square_feet":1494.0,"hoa\/month":null,"lat":37.7445324,"lng":-122.4367649,"built_year":1941.0,"coordinates":"37.7445324,-122.4367649"},{"property_type":"Condo\/Co-op","address":"1177 California St #1703","city":"San Francisco","state":"CA","zip":"94108","price":638000,"beds":0.0,"baths":1.0,"neighborhoods":"Nob Hill","square_feet":411.0,"price_per_square_feet":1552.0,"hoa\/month":932.0,"lat":37.7910262,"lng":-122.4136476,"built_year":1978.0,"coordinates":"37.791026200000005,-122.4136476"},{"property_type":"Condo\/Co-op","address":"1000 3rd St #303","city":"San Francisco","state":"CA","zip":"94158","price":1825000,"beds":2.0,"baths":2.0,"neighborhoods":"Mission Bay","square_feet":1234.0,"price_per_square_feet":1479.0,"hoa\/month":928.0,"lat":37.7752125,"lng":-122.3902276,"built_year":2018.0,"coordinates":"37.7752125,-122.39022759999999"},{"property_type":"Single Family Residential","address":"133 Cresta Vista Dr","city":"San Francisco","state":"CA","zip":"94127","price":1898000,"beds":4.0,"baths":3.0,"neighborhoods":"Westwood Highlands","square_feet":2400.0,"price_per_square_feet":791.0,"hoa\/month":null,"lat":37.735655,"lng":-122.4567422,"built_year":1988.0,"coordinates":"37.735655,-122.45674220000001"},{"property_type":"Multi-Family (2-4 Unit)","address":"337-339 Monterey Blvd","city":"San Francisco","state":"CA","zip":"94131","price":1595000,"beds":3.0,"baths":2.0,"neighborhoods":"Sunnyside","square_feet":2602.0,"price_per_square_feet":613.0,"hoa\/month":null,"lat":37.7312751,"lng":-122.4429435,"built_year":2016.0,"coordinates":"37.7312751,-122.44294350000001"},{"property_type":"Townhouse","address":"1338 Filbert St","city":"San Francisco","state":"CA","zip":"94109","price":3998000,"beds":3.0,"baths":3.5,"neighborhoods":"Russian Hill","square_feet":2751.0,"price_per_square_feet":1453.0,"hoa\/month":985.0,"lat":37.800098,"lng":-122.4215386,"built_year":1906.0,"coordinates":"37.800098,-122.42153859999999"},{"property_type":"Condo\/Co-op","address":"11 High St #203","city":"San Francisco","state":"CA","zip":"94114","price":1398000,"beds":2.0,"baths":2.0,"neighborhoods":"Noe Valley","square_feet":1208.0,"price_per_square_feet":1157.0,"hoa\/month":450.0,"lat":37.7488223,"lng":-122.4432005,"built_year":1980.0,"coordinates":"37.7488223,-122.44320049999999"},{"property_type":"Single Family Residential","address":"579 Moscow St","city":"San Francisco","state":"CA","zip":"94112","price":1285000,"beds":5.0,"baths":3.0,"neighborhoods":"Excelsior","square_feet":2090.0,"price_per_square_feet":615.0,"hoa\/month":null,"lat":37.7183955,"lng":-122.4295268,"built_year":null,"coordinates":"37.7183955,-122.42952679999999"},{"property_type":"Multi-Family (5+ Unit)","address":"4740 Balboa St","city":"San Francisco","state":"CA","zip":"94121","price":11000000,"beds":6.0,"baths":null,"neighborhoods":"Outer Richmond","square_feet":15659.0,"price_per_square_feet":702.0,"hoa\/month":null,"lat":37.775393,"lng":-122.509784,"built_year":1928.0,"coordinates":"37.775393,-122.50978400000001"},{"property_type":"Condo\/Co-op","address":"445 Francisco St Unit F601","city":"San Francisco","state":"CA","zip":"94133","price":2198000,"beds":2.0,"baths":2.0,"neighborhoods":"North Beach","square_feet":1311.0,"price_per_square_feet":1677.0,"hoa\/month":null,"lat":37.8046669,"lng":-122.4126295,"built_year":2001.0,"coordinates":"37.8046669,-122.4126295"},{"property_type":"Multi-Family (5+ Unit)","address":"3830 19th St","city":"San Francisco","state":"CA","zip":"94114","price":2800000,"beds":6.0,"baths":null,"neighborhoods":"Eureka Valley\/Dolore","square_feet":4740.0,"price_per_square_feet":591.0,"hoa\/month":null,"lat":37.7598626,"lng":-122.4290725,"built_year":1913.0,"coordinates":"37.7598626,-122.4290725"},{"property_type":"Condo\/Co-op","address":"1244 12th Ave","city":"San Francisco","state":"CA","zip":"94122","price":1275000,"beds":3.0,"baths":1.5,"neighborhoods":"Inner Sunset","square_feet":1249.0,"price_per_square_feet":1021.0,"hoa\/month":200.0,"lat":37.7649479,"lng":-122.469266,"built_year":1905.0,"coordinates":"37.764947899999996,-122.46926599999999"},{"property_type":"Single Family Residential","address":"198 Bradford St","city":"San Francisco","state":"CA","zip":"94110","price":1498000,"beds":4.0,"baths":2.0,"neighborhoods":"Bernal Heights","square_feet":1940.0,"price_per_square_feet":772.0,"hoa\/month":null,"lat":37.7398866,"lng":-122.4098379,"built_year":null,"coordinates":"37.739886600000006,-122.4098379"},{"property_type":"Multi-Family (2-4 Unit)","address":"635-637 Baker St","city":"San Francisco","state":"CA","zip":"94117","price":2775000,"beds":8.0,"baths":5.0,"neighborhoods":"North Panhandle","square_feet":4200.0,"price_per_square_feet":661.0,"hoa\/month":null,"lat":37.7770339,"lng":-122.4419544,"built_year":1900.0,"coordinates":"37.7770339,-122.4419544"},{"property_type":"Condo\/Co-op","address":"875 Indiana St #326","city":"SAN FRANCISCO","state":"CA","zip":"94107","price":989000,"beds":1.0,"baths":1.5,"neighborhoods":"SAN FRANCISCO","square_feet":855.0,"price_per_square_feet":1157.0,"hoa\/month":524.0,"lat":37.7596716,"lng":-122.3908629,"built_year":2009.0,"coordinates":"37.759671600000004,-122.3908629"},{"property_type":"Condo\/Co-op","address":"333 Beale St Unit 4C","city":"San Francisco","state":"CA","zip":"94105","price":1228000,"beds":1.0,"baths":1.5,"neighborhoods":"South Beach","square_feet":916.0,"price_per_square_feet":1341.0,"hoa\/month":1134.0,"lat":37.7884937,"lng":-122.3918797,"built_year":2015.0,"coordinates":"37.788493700000004,-122.3918797"},{"property_type":"Single Family Residential","address":"240 Chenery St","city":"San Francisco","state":"CA","zip":"94131","price":4500000,"beds":4.0,"baths":4.5,"neighborhoods":"Glen Park","square_feet":3650.0,"price_per_square_feet":1233.0,"hoa\/month":null,"lat":37.7384164,"lng":-122.4267064,"built_year":1908.0,"coordinates":"37.7384164,-122.4267064"},{"property_type":"Condo\/Co-op","address":"1755 Jackson St #406","city":"San Francisco","state":"CA","zip":"94109","price":2250000,"beds":3.0,"baths":3.0,"neighborhoods":"Pacific Heights","square_feet":1906.0,"price_per_square_feet":1180.0,"hoa\/month":750.0,"lat":37.7935378,"lng":-122.4240021,"built_year":1923.0,"coordinates":"37.793537799999996,-122.4240021"},{"property_type":"Multi-Family (5+ Unit)","address":"402 Duboce Ave","city":"San Francisco","state":"CA","zip":"94117","price":6350000,"beds":17.0,"baths":null,"neighborhoods":"Duboce Triangle","square_feet":9399.0,"price_per_square_feet":676.0,"hoa\/month":null,"lat":37.7695951,"lng":-122.4301556,"built_year":1908.0,"coordinates":"37.769595100000004,-122.43015559999999"},{"property_type":"Condo\/Co-op","address":"81 Lansing St #410","city":"San Francisco","state":"CA","zip":"94105","price":949000,"beds":1.0,"baths":1.0,"neighborhoods":"South Beach","square_feet":855.0,"price_per_square_feet":1110.0,"hoa\/month":743.0,"lat":37.7856392,"lng":-122.3940066,"built_year":1995.0,"coordinates":"37.785639200000006,-122.39400659999998"},{"property_type":"Multi-Family (2-4 Unit)","address":"729-733 Vallejo St","city":"San Francisco","state":"CA","zip":"94133","price":1299000,"beds":6.0,"baths":2.0,"neighborhoods":"North Beach","square_feet":3660.0,"price_per_square_feet":355.0,"hoa\/month":null,"lat":37.7983197,"lng":-122.4093184,"built_year":1906.0,"coordinates":"37.79831970000001,-122.40931840000002"},{"property_type":"Townhouse","address":"2001 McAllister St #254","city":"San Francisco","state":"CA","zip":"94118","price":1450000,"beds":2.0,"baths":2.5,"neighborhoods":"North Panhandle","square_feet":1407.0,"price_per_square_feet":1031.0,"hoa\/month":931.0,"lat":37.7763812,"lng":-122.4456902,"built_year":2002.0,"coordinates":"37.7763812,-122.4456902"},{"property_type":"Single Family Residential","address":"4073-4075 17th St","city":"San Francisco","state":"CA","zip":"94114","price":2795000,"beds":3.0,"baths":3.0,"neighborhoods":"Corona Heights","square_feet":2336.0,"price_per_square_feet":1196.0,"hoa\/month":null,"lat":37.7622875,"lng":-122.4367055,"built_year":1907.0,"coordinates":"37.7622875,-122.43670549999999"},{"property_type":"Single Family Residential","address":"3020 Scott St","city":"San Francisco","state":"CA","zip":"94123","price":3980000,"beds":3.0,"baths":3.5,"neighborhoods":"Cow Hollow","square_feet":2400.0,"price_per_square_feet":1658.0,"hoa\/month":null,"lat":37.7980388,"lng":-122.4405642,"built_year":1900.0,"coordinates":"37.7980388,-122.4405642"},{"property_type":"Condo\/Co-op","address":"338 Main St Unit 35D","city":"San Francisco","state":"CA","zip":"94105","price":1498000,"beds":1.0,"baths":1.0,"neighborhoods":"South Beach","square_feet":963.0,"price_per_square_feet":1556.0,"hoa\/month":1143.0,"lat":37.7886733,"lng":-122.3914178,"built_year":2016.0,"coordinates":"37.78867329999999,-122.39141780000001"},{"property_type":"Multi-Family (5+ Unit)","address":"674-678 Haight St","city":"San Francisco","state":"CA","zip":"94117","price":3100000,"beds":9.0,"baths":null,"neighborhoods":"Hayes Valley","square_feet":5655.0,"price_per_square_feet":548.0,"hoa\/month":null,"lat":37.7719836,"lng":-122.4333667,"built_year":1890.0,"coordinates":"37.7719836,-122.43336670000001"},{"property_type":"Condo\/Co-op","address":"2200 Sacramento St #1305","city":"San Francisco","state":"CA","zip":"94115","price":2050000,"beds":1.0,"baths":2.0,"neighborhoods":"Pacific Heights","square_feet":null,"price_per_square_feet":null,"hoa\/month":682.0,"lat":37.7906814,"lng":-122.4294984,"built_year":1964.0,"coordinates":"37.790681400000004,-122.42949840000001"},{"property_type":"Condo\/Co-op","address":"1333 Jones St #1609","city":"San Francisco","state":"CA","zip":"94109","price":1250000,"beds":1.0,"baths":1.0,"neighborhoods":"Nob Hill","square_feet":null,"price_per_square_feet":null,"hoa\/month":1185.0,"lat":37.793621,"lng":-122.4148823,"built_year":1961.0,"coordinates":"37.793621,-122.41488229999999"},{"property_type":"Condo\/Co-op","address":"2946 Pierce","city":"San Francisco","state":"CA","zip":"94123","price":4250000,"beds":3.0,"baths":3.5,"neighborhoods":"Cow Hollow","square_feet":2798.0,"price_per_square_feet":1519.0,"hoa\/month":300.0,"lat":37.797331,"lng":-122.438648,"built_year":null,"coordinates":"37.797331,-122.438648"},{"property_type":"Single Family Residential","address":"867 27th Ave","city":"San Francisco","state":"CA","zip":"94121","price":799950,"beds":3.0,"baths":2.0,"neighborhoods":"Central Richmond","square_feet":1666.0,"price_per_square_feet":480.0,"hoa\/month":null,"lat":37.7730701,"lng":-122.4866809,"built_year":1931.0,"coordinates":"37.7730701,-122.48668090000001"},{"property_type":"Single Family Residential","address":"366 Quintara St","city":"San Francisco","state":"CA","zip":"94116","price":1325000,"beds":2.0,"baths":1.0,"neighborhoods":"Golden Gate Heights","square_feet":null,"price_per_square_feet":null,"hoa\/month":null,"lat":37.7490791,"lng":-122.4695788,"built_year":1949.0,"coordinates":"37.7490791,-122.4695788"},{"property_type":"Single Family Residential","address":"311 Amber Dr","city":"San Francisco","state":"CA","zip":"94131","price":2350000,"beds":3.0,"baths":2.0,"neighborhoods":"Diamond Heights","square_feet":1648.0,"price_per_square_feet":1426.0,"hoa\/month":null,"lat":37.7445366,"lng":-122.4422784,"built_year":1963.0,"coordinates":"37.7445366,-122.44227839999999"},{"property_type":"Condo\/Co-op","address":"1177 California St #623","city":"San Francisco","state":"CA","zip":"94108","price":725000,"beds":1.0,"baths":1.0,"neighborhoods":"Nob Hill","square_feet":706.0,"price_per_square_feet":1027.0,"hoa\/month":1139.0,"lat":37.7910262,"lng":-122.4136476,"built_year":1978.0,"coordinates":"37.791026200000005,-122.4136476"},{"property_type":"Single Family Residential","address":"46 Porter St","city":"SAN FRANCISCO","state":"CA","zip":"94110","price":1199000,"beds":3.0,"baths":2.0,"neighborhoods":"SAN FRANCISCO","square_feet":1420.0,"price_per_square_feet":844.0,"hoa\/month":null,"lat":37.7343942,"lng":-122.4183776,"built_year":1900.0,"coordinates":"37.734394200000004,-122.41837759999999"},{"property_type":"Single Family Residential","address":"78 Cotter St","city":"San Francisco","state":"CA","zip":"94112","price":995000,"beds":4.0,"baths":3.0,"neighborhoods":"San Francisco County","square_feet":1580.0,"price_per_square_feet":630.0,"hoa\/month":null,"lat":37.7280723,"lng":-122.4343947,"built_year":1905.0,"coordinates":"37.7280723,-122.4343947"},{"property_type":"Single Family Residential","address":"63 Carmel St","city":"San Francisco","state":"CA","zip":"94117","price":3650000,"beds":4.0,"baths":4.5,"neighborhoods":"Parnassus\/Ashbury Heights","square_feet":4588.0,"price_per_square_feet":796.0,"hoa\/month":null,"lat":37.7607091,"lng":-122.4480468,"built_year":1922.0,"coordinates":"37.7607091,-122.44804679999999"},{"property_type":"Single Family Residential","address":"930 Naples St","city":"San Francisco","state":"CA","zip":"94112","price":1250000,"beds":3.0,"baths":2.0,"neighborhoods":"Excelsior","square_feet":1540.0,"price_per_square_feet":812.0,"hoa\/month":null,"lat":37.715078,"lng":-122.435899,"built_year":1921.0,"coordinates":"37.715078000000005,-122.43589899999999"},{"property_type":"Condo\/Co-op","address":"965 Folsom St #202","city":"San Francisco","state":"CA","zip":"94107","price":1100000,"beds":1.0,"baths":1.5,"neighborhoods":"South of Market","square_feet":1547.0,"price_per_square_feet":711.0,"hoa\/month":705.0,"lat":37.7790012,"lng":-122.404485,"built_year":2000.0,"coordinates":"37.7790012,-122.40448500000001"},{"property_type":"Condo\/Co-op","address":"222 Eureka St","city":"San Francisco","state":"CA","zip":"94114","price":1495000,"beds":2.0,"baths":1.5,"neighborhoods":"Eureka Valley\/Dolore","square_feet":1365.0,"price_per_square_feet":1095.0,"hoa\/month":375.0,"lat":37.758628,"lng":-122.438388,"built_year":1902.0,"coordinates":"37.758628,-122.43838799999999"},{"property_type":"Condo\/Co-op","address":"4397 25th St","city":"San Francisco","state":"CA","zip":"94114","price":1399000,"beds":3.0,"baths":1.0,"neighborhoods":"Noe Valley","square_feet":1339.0,"price_per_square_feet":1045.0,"hoa\/month":430.0,"lat":37.749249,"lng":-122.43815,"built_year":1908.0,"coordinates":"37.749249,-122.43815"},{"property_type":"Condo\/Co-op","address":"280 Spear St Unit 4U","city":"San Francisco","state":"CA","zip":"94105","price":945000,"beds":1.0,"baths":1.0,"neighborhoods":"South Beach","square_feet":671.0,"price_per_square_feet":1408.0,"hoa\/month":1078.0,"lat":37.7903739,"lng":-122.3913812,"built_year":2020.0,"coordinates":"37.7903739,-122.3913812"},{"property_type":"Single Family Residential","address":"663 Marina Blvd","city":"San Francisco","state":"CA","zip":"94123","price":9250000,"beds":6.0,"baths":6.5,"neighborhoods":"Marina","square_feet":5420.0,"price_per_square_feet":1707.0,"hoa\/month":null,"lat":37.8052169,"lng":-122.4447837,"built_year":1937.0,"coordinates":"37.8052169,-122.4447837"},{"property_type":"Single Family Residential","address":"1401 Shafter Ave","city":"San Francisco","state":"CA","zip":"94124","price":980000,"beds":3.0,"baths":2.5,"neighborhoods":"Bayview","square_feet":1412.0,"price_per_square_feet":694.0,"hoa\/month":null,"lat":37.7288266,"lng":-122.3872686,"built_year":1929.0,"coordinates":"37.7288266,-122.3872686"},{"property_type":"Multi-Family (2-4 Unit)","address":"1061-1065 Oak St","city":"San Francisco","state":"CA","zip":"94117","price":2500000,"beds":4.0,"baths":2.0,"neighborhoods":"Hayes Valley","square_feet":3418.0,"price_per_square_feet":731.0,"hoa\/month":null,"lat":37.7729291,"lng":-122.4367287,"built_year":1900.0,"coordinates":"37.772929100000006,-122.4367287"},{"property_type":"Single Family Residential","address":"454 32nd Ave","city":"SAN FRANCISCO","state":"CA","zip":"94121","price":1888000,"beds":3.0,"baths":3.5,"neighborhoods":"SAN FRANCISCO","square_feet":1968.0,"price_per_square_feet":959.0,"hoa\/month":null,"lat":37.7806473,"lng":-122.4920309,"built_year":1924.0,"coordinates":"37.7806473,-122.49203090000002"},{"property_type":"Condo\/Co-op","address":"388 Fulton St #310","city":"San Francisco","state":"CA","zip":"94102","price":310798,"beds":0.0,"baths":1.0,"neighborhoods":"Hayes Valley","square_feet":347.0,"price_per_square_feet":896.0,"hoa\/month":445.0,"lat":37.7790409,"lng":-122.4231102,"built_year":2016.0,"coordinates":"37.7790409,-122.4231102"},{"property_type":"Condo\/Co-op","address":"301 Mission St Unit 3H","city":"San Francisco","state":"CA","zip":"94105","price":754000,"beds":1.0,"baths":1.0,"neighborhoods":"Yerba Buena","square_feet":773.0,"price_per_square_feet":975.0,"hoa\/month":1531.0,"lat":37.7903824,"lng":-122.3961531,"built_year":2009.0,"coordinates":"37.7903824,-122.39615309999999"},{"property_type":"Condo\/Co-op","address":"4475 24th St #4","city":"San Francisco","state":"CA","zip":"94114","price":1750000,"beds":3.0,"baths":2.0,"neighborhoods":"Noe Valley","square_feet":1654.0,"price_per_square_feet":1058.0,"hoa\/month":308.0,"lat":37.7506157,"lng":-122.4422679,"built_year":1979.0,"coordinates":"37.7506157,-122.4422679"},{"property_type":"Condo\/Co-op","address":"1075 Market St #612","city":"San Francisco","state":"CA","zip":"94103","price":890000,"beds":1.0,"baths":1.0,"neighborhoods":"699 - Not Defined","square_feet":662.0,"price_per_square_feet":1344.0,"hoa\/month":738.0,"lat":37.7807996,"lng":-122.4118342,"built_year":2018.0,"coordinates":"37.7807996,-122.4118342"},{"property_type":"Condo\/Co-op","address":"461 2nd St Unit C135","city":"San Francisco","state":"CA","zip":"94107","price":1189000,"beds":1.0,"baths":1.0,"neighborhoods":"South Beach","square_feet":1317.0,"price_per_square_feet":903.0,"hoa\/month":709.0,"lat":37.7834473,"lng":-122.3936481,"built_year":1907.0,"coordinates":"37.7834473,-122.3936481"},{"property_type":"Multi-Family (2-4 Unit)","address":"1642-1644 Waller St","city":"San Francisco","state":"CA","zip":"94117","price":1995000,"beds":null,"baths":null,"neighborhoods":"Haight Ashbury","square_feet":2713.0,"price_per_square_feet":735.0,"hoa\/month":null,"lat":37.7687206,"lng":-122.4513586,"built_year":1904.0,"coordinates":"37.7687206,-122.45135859999999"},{"property_type":"Condo\/Co-op","address":"2468 Bush Unit A","city":"San Francisco","state":"CA","zip":"94115","price":698000,"beds":1.0,"baths":1.0,"neighborhoods":"Lower Pacific Height","square_feet":null,"price_per_square_feet":null,"hoa\/month":188.0,"lat":37.786645,"lng":-122.4378985,"built_year":1900.0,"coordinates":"37.786645,-122.43789850000002"},{"property_type":"Condo\/Co-op","address":"1333 Jones St #1102","city":"San Francisco","state":"CA","zip":"94109","price":2199000,"beds":1.0,"baths":2.0,"neighborhoods":"Nob Hill","square_feet":1590.0,"price_per_square_feet":1383.0,"hoa\/month":1592.0,"lat":37.793621,"lng":-122.4148823,"built_year":1960.0,"coordinates":"37.793621,-122.41488229999999"},{"property_type":"Single Family Residential","address":"1759 8th Ave","city":"San Francisco","state":"CA","zip":"94122","price":1325000,"beds":3.0,"baths":2.0,"neighborhoods":"Inner Sunset","square_feet":1760.0,"price_per_square_feet":753.0,"hoa\/month":null,"lat":37.755515,"lng":-122.464973,"built_year":1925.0,"coordinates":"37.755515,-122.464973"},{"property_type":"Single Family Residential","address":"1547 Thomas Ave","city":"SAN FRANCISCO","state":"CA","zip":"94124","price":899000,"beds":2.0,"baths":1.5,"neighborhoods":"SAN FRANCISCO","square_feet":1425.0,"price_per_square_feet":631.0,"hoa\/month":null,"lat":37.7297137,"lng":-122.3904951,"built_year":1941.0,"coordinates":"37.729713700000005,-122.3904951"},{"property_type":"Condo\/Co-op","address":"3714 23rd St","city":"San Francisco","state":"CA","zip":"94114","price":1525000,"beds":3.0,"baths":2.0,"neighborhoods":"Noe Valley","square_feet":null,"price_per_square_feet":null,"hoa\/month":223.0,"lat":37.753561,"lng":-122.4257779,"built_year":1900.0,"coordinates":"37.753561,-122.42577790000001"},{"property_type":"Condo\/Co-op","address":"199 Tiffany Ave #210","city":"San Francisco","state":"CA","zip":"94110","price":1249000,"beds":2.0,"baths":2.0,"neighborhoods":"Bernal Heights","square_feet":1171.0,"price_per_square_feet":1067.0,"hoa\/month":731.0,"lat":37.744274,"lng":-122.4213436,"built_year":2004.0,"coordinates":"37.744274,-122.4213436"},{"property_type":"Single Family Residential","address":"1500 Visitacion Ave","city":"San Francisco","state":"CA","zip":"94134","price":949000,"beds":3.0,"baths":2.0,"neighborhoods":"San Francisco","square_feet":1068.0,"price_per_square_feet":889.0,"hoa\/month":null,"lat":37.7131716,"lng":-122.4135547,"built_year":1944.0,"coordinates":"37.7131716,-122.4135547"},{"property_type":"Single Family Residential","address":"1246 47th Ave","city":"San Francisco","state":"CA","zip":"94122","price":650000,"beds":1.0,"baths":1.0,"neighborhoods":"Outer Sunset","square_feet":550.0,"price_per_square_feet":1182.0,"hoa\/month":null,"lat":37.7632964,"lng":-122.5067807,"built_year":1923.0,"coordinates":"37.763296399999994,-122.50678070000001"},{"property_type":"Condo\/Co-op","address":"201 Folsom St Unit 6G","city":"San Francisco","state":"CA","zip":"94105","price":1795000,"beds":2.0,"baths":2.0,"neighborhoods":"South Beach","square_feet":1401.0,"price_per_square_feet":1281.0,"hoa\/month":1216.0,"lat":37.7887059,"lng":-122.3922385,"built_year":2016.0,"coordinates":"37.788705900000004,-122.3922385"},{"property_type":"Single Family Residential","address":"1244 47th Ave","city":"San Francisco","state":"CA","zip":"94122","price":1088888,"beds":2.0,"baths":1.0,"neighborhoods":"Outer Sunset","square_feet":1056.0,"price_per_square_feet":1031.0,"hoa\/month":null,"lat":37.7632902,"lng":-122.5070137,"built_year":1923.0,"coordinates":"37.7632902,-122.50701370000002"},{"property_type":"Condo\/Co-op","address":"1314 Greenwich St","city":"San Francisco","state":"CA","zip":"94109","price":855000,"beds":1.0,"baths":1.0,"neighborhoods":"San Francisco","square_feet":null,"price_per_square_feet":null,"hoa\/month":525.0,"lat":37.8009478,"lng":-122.421418,"built_year":1924.0,"coordinates":"37.800947799999996,-122.42141799999999"},{"property_type":"Single Family Residential","address":"1324 Rhode Island St","city":"San Francisco","state":"CA","zip":"94107","price":4075000,"beds":4.0,"baths":4.0,"neighborhoods":"Potrero Hill","square_feet":3605.0,"price_per_square_feet":1130.0,"hoa\/month":null,"lat":37.7529052,"lng":-122.4016184,"built_year":1913.0,"coordinates":"37.7529052,-122.40161840000002"},{"property_type":"Condo\/Co-op","address":"1635 California St #24","city":"San Francisco","state":"CA","zip":"94109","price":1099000,"beds":2.0,"baths":2.0,"neighborhoods":"Nob Hill","square_feet":915.0,"price_per_square_feet":1201.0,"hoa\/month":639.0,"lat":37.7901833,"lng":-122.4213456,"built_year":2005.0,"coordinates":"37.790183299999995,-122.4213456"},{"property_type":"Condo\/Co-op","address":"601 4th St #302","city":"San Francisco","state":"CA","zip":"94107","price":965000,"beds":1.0,"baths":1.0,"neighborhoods":"South Beach","square_feet":1026.0,"price_per_square_feet":941.0,"hoa\/month":576.0,"lat":37.7781631,"lng":-122.3957778,"built_year":1918.0,"coordinates":"37.7781631,-122.39577779999999"},{"property_type":"Condo\/Co-op","address":"1188 Valencia St #210","city":"San Francisco","state":"CA","zip":"94110","price":889000,"beds":1.0,"baths":1.0,"neighborhoods":"Inner Mission","square_feet":null,"price_per_square_feet":null,"hoa\/month":484.0,"lat":37.75392,"lng":-122.4210164,"built_year":2018.0,"coordinates":"37.75392,-122.42101640000001"},{"property_type":"Single Family Residential","address":"661 Rockdale Dr","city":"San Francisco","state":"CA","zip":"94127","price":1325000,"beds":2.0,"baths":1.0,"neighborhoods":"Miraloma Park","square_feet":1150.0,"price_per_square_feet":1152.0,"hoa\/month":null,"lat":37.7408812,"lng":-122.4507711,"built_year":1930.0,"coordinates":"37.740881200000004,-122.45077109999998"},{"property_type":"Condo\/Co-op","address":"53 Wilder St #403","city":"San Francisco","state":"CA","zip":"94131","price":1295000,"beds":2.0,"baths":2.0,"neighborhoods":"Glen Park","square_feet":1231.0,"price_per_square_feet":1052.0,"hoa\/month":688.0,"lat":37.7339803,"lng":-122.4336263,"built_year":2006.0,"coordinates":"37.7339803,-122.4336263"},{"property_type":"Condo\/Co-op","address":"1775 Broadway #8","city":"SAN FRANCISCO","state":"CA","zip":"94109","price":994500,"beds":1.0,"baths":1.0,"neighborhoods":"SAN FRANCISCO","square_feet":728.0,"price_per_square_feet":1366.0,"hoa\/month":662.0,"lat":37.795108,"lng":-122.426207,"built_year":1925.0,"coordinates":"37.795108,-122.426207"},{"property_type":"Condo\/Co-op","address":"301 Mission St Unit 33E","city":"San Francisco","state":"CA","zip":"94105","price":1995000,"beds":2.0,"baths":2.0,"neighborhoods":"Yerba Buena","square_feet":1714.0,"price_per_square_feet":1164.0,"hoa\/month":2670.0,"lat":37.7903824,"lng":-122.3961531,"built_year":2009.0,"coordinates":"37.7903824,-122.39615309999999"},{"property_type":"Multi-Family (2-4 Unit)","address":"2920 Gough St","city":"San Francisco","state":"CA","zip":"94123","price":3500000,"beds":4.0,"baths":3.0,"neighborhoods":"Cow Hollow","square_feet":3700.0,"price_per_square_feet":946.0,"hoa\/month":null,"lat":37.8003671,"lng":-122.4274242,"built_year":1937.0,"coordinates":"37.8003671,-122.4274242"},{"property_type":"Single Family Residential","address":"4412 17th St","city":"San Francisco","state":"CA","zip":"94114","price":2350000,"beds":3.0,"baths":2.5,"neighborhoods":"Corona Heights","square_feet":2073.0,"price_per_square_feet":1134.0,"hoa\/month":null,"lat":37.762178,"lng":-122.443736,"built_year":1907.0,"coordinates":"37.762178000000006,-122.44373600000002"},{"property_type":"Multi-Family (2-4 Unit)","address":"1736-1738 Fell St","city":"San Francisco","state":"CA","zip":"94117","price":3495000,"beds":null,"baths":null,"neighborhoods":"North Panhandle","square_feet":6825.0,"price_per_square_feet":512.0,"hoa\/month":null,"lat":37.7731919,"lng":-122.4467019,"built_year":1900.0,"coordinates":"37.7731919,-122.44670190000001"},{"property_type":"Condo\/Co-op","address":"158 Laidley St #3","city":"San Francisco","state":"CA","zip":"94131","price":895000,"beds":1.0,"baths":1.0,"neighborhoods":"Glen Park","square_feet":660.0,"price_per_square_feet":1356.0,"hoa\/month":268.0,"lat":37.7392008,"lng":-122.4289569,"built_year":1960.0,"coordinates":"37.7392008,-122.42895690000002"},{"property_type":"Condo\/Co-op","address":"1000 Pennsylvania Ave #12","city":"San Francisco","state":"CA","zip":"94107","price":1295000,"beds":2.0,"baths":3.0,"neighborhoods":"Potrero Hill","square_feet":1727.0,"price_per_square_feet":750.0,"hoa\/month":769.0,"lat":37.7539025,"lng":-122.3930979,"built_year":2001.0,"coordinates":"37.7539025,-122.3930979"},{"property_type":"Single Family Residential","address":"2576 26th Ave","city":"San Francisco","state":"CA","zip":"94116","price":1128000,"beds":4.0,"baths":1.25,"neighborhoods":"Parkside","square_feet":2037.0,"price_per_square_feet":554.0,"hoa\/month":null,"lat":37.7394617,"lng":-122.4827013,"built_year":1931.0,"coordinates":"37.7394617,-122.4827013"},{"property_type":"Single Family Residential","address":"42 Meda Ave","city":"SAN FRANCISCO","state":"CA","zip":"94112","price":1309000,"beds":4.0,"baths":2.0,"neighborhoods":"SAN FRANCISCO","square_feet":1349.0,"price_per_square_feet":970.0,"hoa\/month":null,"lat":37.7238428,"lng":-122.4416739,"built_year":1916.0,"coordinates":"37.72384279999999,-122.44167390000001"},{"property_type":"Single Family Residential","address":"2956 19th Ave","city":"SAN FRANCISCO","state":"CA","zip":"94132","price":2098000,"beds":4.0,"baths":3.0,"neighborhoods":"SAN FRANCISCO","square_feet":2512.0,"price_per_square_feet":835.0,"hoa\/month":null,"lat":37.7333515,"lng":-122.4747418,"built_year":1936.0,"coordinates":"37.733351500000005,-122.4747418"},{"property_type":"Single Family Residential","address":"86 Fair Oaks St","city":"San Francisco","state":"CA","zip":"94110","price":2095000,"beds":2.0,"baths":1.0,"neighborhoods":"Eureka Valley\/Dolore","square_feet":1740.0,"price_per_square_feet":1204.0,"hoa\/month":null,"lat":37.7554038,"lng":-122.4245938,"built_year":1908.0,"coordinates":"37.755403799999996,-122.42459380000001"},{"property_type":"Condo\/Co-op","address":"765 Market St Ph 2CD","city":"San Francisco","state":"CA","zip":"94103","price":11000000,"beds":3.0,"baths":3.5,"neighborhoods":"South of Market","square_feet":3548.0,"price_per_square_feet":3100.0,"hoa\/month":5068.0,"lat":37.786097,"lng":-122.4041629,"built_year":2001.0,"coordinates":"37.786097,-122.40416289999999"},{"property_type":"Condo\/Co-op","address":"3418 26th St #11","city":"San Francisco","state":"CA","zip":"94110","price":719000,"beds":1.0,"baths":1.0,"neighborhoods":"Inner Mission","square_feet":null,"price_per_square_feet":null,"hoa\/month":570.0,"lat":37.7492018,"lng":-122.4189838,"built_year":2014.0,"coordinates":"37.7492018,-122.41898379999999"},{"property_type":"Single Family Residential","address":"1407 Shafter Ave","city":"San Francisco","state":"CA","zip":"94124","price":950000,"beds":4.0,"baths":3.0,"neighborhoods":"Bayview","square_feet":null,"price_per_square_feet":null,"hoa\/month":null,"lat":37.7288748,"lng":-122.387324,"built_year":1920.0,"coordinates":"37.7288748,-122.38732399999999"},{"property_type":"Condo\/Co-op","address":"339 Presidio Ave","city":"San Francisco","state":"CA","zip":"94115","price":1825000,"beds":3.0,"baths":1.0,"neighborhoods":"Presidio Heights","square_feet":1553.0,"price_per_square_feet":1175.0,"hoa\/month":104.0,"lat":37.7885096,"lng":-122.447168,"built_year":1924.0,"coordinates":"37.788509600000005,-122.44716799999999"},{"property_type":"Condo\/Co-op","address":"875 Vermont St #105","city":"San Francisco","state":"CA","zip":"94107","price":699000,"beds":1.0,"baths":1.0,"neighborhoods":"Potrero Hill","square_feet":null,"price_per_square_feet":null,"hoa\/month":184.0,"lat":37.7585731,"lng":-122.403654,"built_year":null,"coordinates":"37.7585731,-122.403654"},{"property_type":"Condo\/Co-op","address":"756 Lake St","city":"San Francisco","state":"CA","zip":"94118","price":1750000,"beds":2.0,"baths":2.0,"neighborhoods":"Lake","square_feet":null,"price_per_square_feet":null,"hoa\/month":null,"lat":37.7867145,"lng":-122.46775,"built_year":null,"coordinates":"37.7867145,-122.46775"},{"property_type":"Single Family Residential","address":"326 Hale St","city":"SAN FRANCISCO","state":"CA","zip":"94134","price":995000,"beds":2.0,"baths":2.0,"neighborhoods":"SAN FRANCISCO","square_feet":1416.0,"price_per_square_feet":703.0,"hoa\/month":null,"lat":37.7314436,"lng":-122.4114479,"built_year":1950.0,"coordinates":"37.7314436,-122.4114479"},{"property_type":"Condo\/Co-op","address":"333 Beale St Unit 8A","city":"San Francisco","state":"CA","zip":"94105","price":998000,"beds":1.0,"baths":1.0,"neighborhoods":"South Beach","square_feet":873.0,"price_per_square_feet":1143.0,"hoa\/month":985.0,"lat":37.7884937,"lng":-122.3918797,"built_year":2015.0,"coordinates":"37.788493700000004,-122.3918797"},{"property_type":"Single Family Residential","address":"152 Fairmount St","city":"San Francisco","state":"CA","zip":"94131","price":2195000,"beds":3.0,"baths":2.0,"neighborhoods":"Glen Park","square_feet":1716.0,"price_per_square_feet":1279.0,"hoa\/month":null,"lat":37.7389943,"lng":-122.4266784,"built_year":null,"coordinates":"37.738994299999995,-122.4266784"},{"property_type":"Condo\/Co-op","address":"81 Frank Norris St #304","city":"San Francisco","state":"CA","zip":"94109","price":525000,"beds":1.0,"baths":1.0,"neighborhoods":"Downtown","square_feet":632.0,"price_per_square_feet":831.0,"hoa\/month":462.0,"lat":37.7890804,"lng":-122.4200528,"built_year":2007.0,"coordinates":"37.7890804,-122.4200528"},{"property_type":"Single Family Residential","address":"411 Vallejo St","city":"SAN FRANCISCO","state":"CA","zip":"94133","price":2480000,"beds":2.0,"baths":2.5,"neighborhoods":"SAN FRANCISCO","square_feet":1240.0,"price_per_square_feet":2000.0,"hoa\/month":null,"lat":37.798997,"lng":-122.4044668,"built_year":1906.0,"coordinates":"37.798997,-122.40446680000001"},{"property_type":"Condo\/Co-op","address":"56 Danvers St","city":"San Francisco","state":"CA","zip":"94114","price":2000000,"beds":2.0,"baths":2.0,"neighborhoods":"Eureka Valley\/Dolore","square_feet":null,"price_per_square_feet":null,"hoa\/month":300.0,"lat":37.7606318,"lng":-122.4438077,"built_year":null,"coordinates":"37.7606318,-122.44380770000001"},{"property_type":"Multi-Family (2-4 Unit)","address":"148-152 Fillmore St","city":"San Francisco","state":"CA","zip":"94117","price":3250000,"beds":7.0,"baths":5.0,"neighborhoods":"Hayes Valley","square_feet":3801.0,"price_per_square_feet":855.0,"hoa\/month":null,"lat":37.7710169,"lng":-122.4299664,"built_year":1900.0,"coordinates":"37.7710169,-122.42996640000001"},{"property_type":"Single Family Residential","address":"1045 Cole St","city":"San Francisco","state":"CA","zip":"94117","price":3995000,"beds":4.0,"baths":3.5,"neighborhoods":"Parnassus\/Ashbury Heights","square_feet":3472.0,"price_per_square_feet":1151.0,"hoa\/month":null,"lat":37.7642483,"lng":-122.4498422,"built_year":1905.0,"coordinates":"37.7642483,-122.4498422"},{"property_type":"Condo\/Co-op","address":"1264 Dolores St","city":"San Francisco","state":"CA","zip":"94110","price":1749000,"beds":2.0,"baths":2.0,"neighborhoods":"Noe Valley","square_feet":1738.0,"price_per_square_feet":1006.0,"hoa\/month":375.0,"lat":37.7491533,"lng":-122.4252791,"built_year":2012.0,"coordinates":"37.749153299999996,-122.4252791"},{"property_type":"Single Family Residential","address":"623 Athens St","city":"San Francisco","state":"CA","zip":"94112","price":948000,"beds":2.0,"baths":2.0,"neighborhoods":"Excelsior","square_feet":1270.0,"price_per_square_feet":746.0,"hoa\/month":null,"lat":37.7180551,"lng":-122.4308761,"built_year":1927.0,"coordinates":"37.7180551,-122.43087609999999"},{"property_type":"Single Family Residential","address":"892 Ashbury St","city":"San Francisco","state":"CA","zip":"94117","price":4995000,"beds":5.0,"baths":4.0,"neighborhoods":"Buena Vista Park","square_feet":4290.0,"price_per_square_feet":1164.0,"hoa\/month":null,"lat":37.7657851,"lng":-122.445817,"built_year":1905.0,"coordinates":"37.7657851,-122.44581699999999"},{"property_type":"Condo\/Co-op","address":"1870 Jackson St #301","city":"San Francisco","state":"CA","zip":"94109","price":1650000,"beds":2.0,"baths":1.0,"neighborhoods":"Pacific Heights","square_feet":1350.0,"price_per_square_feet":1222.0,"hoa\/month":800.0,"lat":37.7938595,"lng":-122.4258544,"built_year":1931.0,"coordinates":"37.793859499999996,-122.4258544"},{"property_type":"Single Family Residential","address":"3616 Folsom St","city":"San Francisco","state":"CA","zip":"94110","price":1995000,"beds":4.0,"baths":4.0,"neighborhoods":"Bernal Heights","square_feet":2030.0,"price_per_square_feet":983.0,"hoa\/month":null,"lat":37.7412069,"lng":-122.4133888,"built_year":1900.0,"coordinates":"37.741206899999995,-122.4133888"},{"property_type":"Condo\/Co-op","address":"527 Oak St","city":"San Francisco","state":"CA","zip":"94102","price":1650000,"beds":2.0,"baths":2.0,"neighborhoods":"Hayes Valley","square_feet":1820.0,"price_per_square_feet":907.0,"hoa\/month":270.0,"lat":37.774205,"lng":-122.428032,"built_year":1900.0,"coordinates":"37.774205,-122.428032"},{"property_type":"Condo\/Co-op","address":"282 Pixley St","city":"San Francisco","state":"CA","zip":"94123","price":2288000,"beds":2.0,"baths":2.0,"neighborhoods":"Cow Hollow","square_feet":1733.0,"price_per_square_feet":1320.0,"hoa\/month":153.0,"lat":37.7984397,"lng":-122.4370474,"built_year":null,"coordinates":"37.7984397,-122.43704740000001"},{"property_type":"Condo\/Co-op","address":"330 Mission Bay Blvd #604","city":"San Francisco","state":"CA","zip":"94158","price":2888000,"beds":2.0,"baths":2.0,"neighborhoods":"Mission Bay","square_feet":1569.0,"price_per_square_feet":1841.0,"hoa\/month":969.0,"lat":37.771662,"lng":-122.3874533,"built_year":2008.0,"coordinates":"37.771662,-122.3874533"},{"property_type":"Single Family Residential","address":"718 Olmstead St","city":"San Francisco","state":"CA","zip":"94134","price":1159000,"beds":4.0,"baths":2.0,"neighborhoods":"Portola","square_feet":1660.0,"price_per_square_feet":698.0,"hoa\/month":null,"lat":37.721074,"lng":-122.408964,"built_year":1951.0,"coordinates":"37.721074,-122.40896399999998"},{"property_type":"Condo\/Co-op","address":"125 Gilbert St #7","city":"San Francisco","state":"CA","zip":"94103","price":1295000,"beds":2.0,"baths":2.5,"neighborhoods":"South of Market","square_feet":1550.0,"price_per_square_feet":835.0,"hoa\/month":792.0,"lat":37.7732252,"lng":-122.4019151,"built_year":1996.0,"coordinates":"37.773225200000006,-122.40191509999998"},{"property_type":"Single Family Residential","address":"70 Manor Dr","city":"San Francisco","state":"CA","zip":"94127","price":2695000,"beds":4.0,"baths":4.0,"neighborhoods":"Mount Davidson Manor","square_feet":2796.0,"price_per_square_feet":964.0,"hoa\/month":null,"lat":37.7276432,"lng":-122.4642608,"built_year":1927.0,"coordinates":"37.7276432,-122.4642608"},{"property_type":"Single Family Residential","address":"135 15th Ave","city":"San Francisco","state":"CA","zip":"94118","price":4590000,"beds":5.0,"baths":3.5,"neighborhoods":"Lake","square_feet":3939.0,"price_per_square_feet":1165.0,"hoa\/month":null,"lat":37.7855345,"lng":-122.4746091,"built_year":1912.0,"coordinates":"37.7855345,-122.4746091"},{"property_type":"Single Family Residential","address":"1874 32nd Ave","city":"San Francisco","state":"CA","zip":"94122","price":1448000,"beds":3.0,"baths":2.0,"neighborhoods":"Central Sunset","square_feet":1642.0,"price_per_square_feet":882.0,"hoa\/month":null,"lat":37.7522606,"lng":-122.4900855,"built_year":1941.0,"coordinates":"37.7522606,-122.49008549999999"},{"property_type":"Single Family Residential","address":"3015 Ulloa St","city":"San Francisco","state":"CA","zip":"94116","price":1580000,"beds":4.0,"baths":2.0,"neighborhoods":"Parkside","square_feet":1881.0,"price_per_square_feet":840.0,"hoa\/month":null,"lat":37.7403928,"lng":-122.4887983,"built_year":1926.0,"coordinates":"37.740392799999995,-122.4887983"},{"property_type":"Single Family Residential","address":"4064 17th St","city":"San Francisco","state":"CA","zip":"94114","price":5150000,"beds":4.0,"baths":3.5,"neighborhoods":"Corona Heights","square_feet":null,"price_per_square_feet":null,"hoa\/month":null,"lat":37.762613,"lng":-122.4366652,"built_year":1908.0,"coordinates":"37.762613,-122.4366652"},{"property_type":"Condo\/Co-op","address":"435 China Basin St #547","city":"San Francisco","state":"CA","zip":"94158","price":1999999,"beds":2.0,"baths":2.5,"neighborhoods":"Mission Bay","square_feet":1685.0,"price_per_square_feet":1187.0,"hoa\/month":910.0,"lat":37.7715936,"lng":-122.3885893,"built_year":2012.0,"coordinates":"37.771593599999996,-122.38858929999999"},{"property_type":"Single Family Residential","address":"325 Congdon St","city":"San Francisco","state":"CA","zip":"94112","price":1095000,"beds":4.0,"baths":2.0,"neighborhoods":"Excelsior","square_feet":1237.0,"price_per_square_feet":885.0,"hoa\/month":null,"lat":37.7289951,"lng":-122.4257331,"built_year":1910.0,"coordinates":"37.7289951,-122.4257331"},{"property_type":"Condo\/Co-op","address":"2011 3rd St #6","city":"San Francisco","state":"CA","zip":"94107","price":1095000,"beds":2.0,"baths":2.0,"neighborhoods":"Central Waterfront","square_feet":1210.0,"price_per_square_feet":905.0,"hoa\/month":562.0,"lat":37.7639479,"lng":-122.3884823,"built_year":1997.0,"coordinates":"37.7639479,-122.38848229999999"},{"property_type":"Condo\/Co-op","address":"551 Clipper St","city":"San Francisco","state":"CA","zip":"94114","price":1249000,"beds":2.0,"baths":1.0,"neighborhoods":"Noe Valley","square_feet":1126.0,"price_per_square_feet":1109.0,"hoa\/month":225.0,"lat":37.748446,"lng":-122.437242,"built_year":1921.0,"coordinates":"37.748446,-122.437242"},{"property_type":"Condo\/Co-op","address":"370 De Haro St Unit B10","city":"San Francisco","state":"CA","zip":"94103","price":1695000,"beds":2.0,"baths":2.5,"neighborhoods":"Potrero Hill","square_feet":1622.0,"price_per_square_feet":1045.0,"hoa\/month":null,"lat":37.7654597,"lng":-122.4021363,"built_year":1999.0,"coordinates":"37.7654597,-122.4021363"},{"property_type":"Single Family Residential","address":"295 Hazelwood Ave","city":"San Francisco","state":"CA","zip":"94127","price":1749000,"beds":2.0,"baths":2.0,"neighborhoods":"Westwood Highlands","square_feet":1439.0,"price_per_square_feet":1215.0,"hoa\/month":null,"lat":37.7327358,"lng":-122.4554595,"built_year":null,"coordinates":"37.73273579999999,-122.4554595"},{"property_type":"Condo\/Co-op","address":"160 Hancock St #3","city":"San Francisco","state":"CA","zip":"94114","price":2995000,"beds":3.0,"baths":3.0,"neighborhoods":"Eureka Valley\/Dolore","square_feet":2425.0,"price_per_square_feet":1235.0,"hoa\/month":400.0,"lat":37.7605212,"lng":-122.431844,"built_year":2003.0,"coordinates":"37.76052120000001,-122.431844"},{"property_type":"Condo\/Co-op","address":"1100 Sacramento St #1002","city":"San Francisco","state":"CA","zip":"94108","price":12495000,"beds":3.0,"baths":3.75,"neighborhoods":"Nob Hill","square_feet":4320.0,"price_per_square_feet":2892.0,"hoa\/month":5387.0,"lat":37.7929478,"lng":-122.4114198,"built_year":1925.0,"coordinates":"37.79294779999999,-122.41141979999999"},{"property_type":"Condo\/Co-op","address":"1267 Oak St","city":"San Francisco","state":"CA","zip":"94117","price":679000,"beds":1.0,"baths":1.0,"neighborhoods":"Haight Ashbury","square_feet":758.0,"price_per_square_feet":896.0,"hoa\/month":275.0,"lat":37.772502,"lng":-122.440134,"built_year":1908.0,"coordinates":"37.772502,-122.44013400000001"},{"property_type":"Single Family Residential","address":"3741 Broderick St","city":"San Francisco","state":"CA","zip":"94123","price":9300000,"beds":5.0,"baths":4.0,"neighborhoods":"Marina","square_feet":5016.0,"price_per_square_feet":1854.0,"hoa\/month":null,"lat":37.804979,"lng":-122.4457948,"built_year":1939.0,"coordinates":"37.804978999999996,-122.44579479999999"},{"property_type":"Single Family Residential","address":"195 Magellan Ave","city":"San Francisco","state":"CA","zip":"94116","price":3000000,"beds":4.0,"baths":3.0,"neighborhoods":"Forest Hill","square_feet":2976.0,"price_per_square_feet":1008.0,"hoa\/month":null,"lat":37.7475875,"lng":-122.4597055,"built_year":1950.0,"coordinates":"37.7475875,-122.4597055"},{"property_type":"Multi-Family (2-4 Unit)","address":"3132-3136 23rd St","city":"San Francisco","state":"CA","zip":"94110","price":1200000,"beds":4.0,"baths":3.0,"neighborhoods":"Inner Mission","square_feet":2191.0,"price_per_square_feet":548.0,"hoa\/month":null,"lat":37.7541819,"lng":-122.4150611,"built_year":1900.0,"coordinates":"37.7541819,-122.4150611"},{"property_type":"Multi-Family (2-4 Unit)","address":"479-481 32nd Ave","city":"San Francisco","state":"CA","zip":"94121","price":3250000,"beds":8.0,"baths":8.0,"neighborhoods":"Central Richmond","square_feet":5320.0,"price_per_square_feet":611.0,"hoa\/month":null,"lat":37.7802087,"lng":-122.4925976,"built_year":1923.0,"coordinates":"37.7802087,-122.4925976"},{"property_type":"Townhouse","address":"5031 Diamond Heights Blvd","city":"San Francisco","state":"CA","zip":"94131","price":1499000,"beds":3.0,"baths":2.5,"neighborhoods":"Diamond Heights","square_feet":2188.0,"price_per_square_feet":685.0,"hoa\/month":675.0,"lat":37.747421,"lng":-122.442688,"built_year":1979.0,"coordinates":"37.747421,-122.44268799999999"},{"property_type":"Condo\/Co-op","address":"180 Corwin","city":"San Francisco","state":"CA","zip":"94114","price":995000,"beds":2.0,"baths":1.0,"neighborhoods":"Eureka Valley\/Dolore","square_feet":null,"price_per_square_feet":null,"hoa\/month":469.0,"lat":37.7581502,"lng":-122.4407171,"built_year":null,"coordinates":"37.7581502,-122.44071709999999"},{"property_type":"Condo\/Co-op","address":"236 Moultrie St","city":"San Francisco","state":"CA","zip":"94110","price":798000,"beds":2.0,"baths":1.0,"neighborhoods":"Bernal Heights","square_feet":null,"price_per_square_feet":null,"hoa\/month":null,"lat":37.7411202,"lng":-122.4159179,"built_year":1900.0,"coordinates":"37.741120200000005,-122.4159179"},{"property_type":"Condo\/Co-op","address":"181 Ofarrell St #302","city":"San Francisco","state":"CA","zip":"94102","price":1295000,"beds":2.0,"baths":1.5,"neighborhoods":"Downtown","square_feet":1499.0,"price_per_square_feet":864.0,"hoa\/month":805.0,"lat":37.7861884,"lng":-122.4076329,"built_year":2006.0,"coordinates":"37.78618839999999,-122.40763290000001"},{"property_type":"Condo\/Co-op","address":"195 7th St #309","city":"San Francisco","state":"CA","zip":"94103","price":425000,"beds":0.0,"baths":1.0,"neighborhoods":"South of Market","square_feet":307.0,"price_per_square_feet":1384.0,"hoa\/month":370.0,"lat":37.7782751,"lng":-122.4094319,"built_year":1991.0,"coordinates":"37.7782751,-122.40943190000002"},{"property_type":"Condo\/Co-op","address":"240 Lombard St #229","city":"San Francisco","state":"CA","zip":"94111","price":599000,"beds":1.0,"baths":1.0,"neighborhoods":"North Waterfront","square_feet":580.0,"price_per_square_feet":1033.0,"hoa\/month":945.0,"lat":37.8042439,"lng":-122.4055041,"built_year":1993.0,"coordinates":"37.8042439,-122.4055041"},{"property_type":"Condo\/Co-op","address":"45 Bartlett St #416","city":"San Francisco","state":"CA","zip":"94110","price":698000,"beds":1.0,"baths":1.0,"neighborhoods":"Inner Mission","square_feet":517.0,"price_per_square_feet":1350.0,"hoa\/month":540.0,"lat":37.7559364,"lng":-122.419286,"built_year":2014.0,"coordinates":"37.7559364,-122.41928600000001"},{"property_type":"Condo\/Co-op","address":"2482 Bush St","city":"San Francisco","state":"CA","zip":"94115","price":1650000,"beds":2.0,"baths":1.0,"neighborhoods":"Lower Pacific Height","square_feet":1522.0,"price_per_square_feet":1084.0,"hoa\/month":410.0,"lat":37.786716,"lng":-122.438095,"built_year":1900.0,"coordinates":"37.786716,-122.43809499999999"},{"property_type":"Single Family Residential","address":"375 Naples St","city":"San Francisco","state":"CA","zip":"94112-2058","price":1398888,"beds":3.0,"baths":1.5,"neighborhoods":"Excelsior","square_feet":1700.0,"price_per_square_feet":823.0,"hoa\/month":null,"lat":37.7227237,"lng":-122.4295645,"built_year":1917.0,"coordinates":"37.7227237,-122.4295645"},{"property_type":"Single Family Residential","address":"180 Princeton St","city":"SAN FRANCISCO","state":"CA","zip":"94134","price":1460000,"beds":3.0,"baths":4.0,"neighborhoods":"SAN FRANCISCO","square_feet":1794.0,"price_per_square_feet":814.0,"hoa\/month":null,"lat":37.7274034,"lng":-122.4157422,"built_year":1974.0,"coordinates":"37.7274034,-122.4157422"},{"property_type":"Condo\/Co-op","address":"1468 Francisco St #3","city":"San Francisco","state":"CA","zip":"94123","price":1199000,"beds":1.0,"baths":1.0,"neighborhoods":"Marina","square_feet":984.0,"price_per_square_feet":1218.0,"hoa\/month":350.0,"lat":37.8029289,"lng":-122.4294106,"built_year":1924.0,"coordinates":"37.8029289,-122.4294106"},{"property_type":"Multi-Family (2-4 Unit)","address":"593-595 Clipper St","city":"San Francisco","state":"CA","zip":"94114","price":3800000,"beds":4.0,"baths":3.5,"neighborhoods":"Noe Valley","square_feet":2309.0,"price_per_square_feet":1646.0,"hoa\/month":null,"lat":37.7484554,"lng":-122.4380625,"built_year":1921.0,"coordinates":"37.7484554,-122.4380625"},