id,property_type,address,city,state,zip,price,beds,baths,neighborhoods,sq-foot,price_sqfoot,hoa_month,lat,lng,built_year,coordinates
1,Condo/Co-op,1548 Jones St,San Francisco,CA,94109,1400000,2,2,Nob Hill,1158,1209,339,37.7956865,-122.4147746,1910,"37.7956865,-122.4147746"
2,Condo/Co-op,2200 Market St #402,San Francisco,CA,94114,1150000,1,1.5,Duboce Triangle,825,1394,627,37.7657893,-122.431598,2014,"37.7657893,-122.431598"
3,Condo/Co-op,2040 Franklin St #1004,San Francisco,CA,94109,998000,1,1,Pacific Heights,919,1086,942,37.7935189,-122.4243158,1966,"37.7935189,-122.4243158"
4,Condo/Co-op,1425 Vallejo St #205,San Francisco,CA,94109,1349000,2,2,Russian Hill,1034,1305,744,37.7967355,-122.4208266,1982,"37.7967355,-122.42082659999998"
5,Condo/Co-op,260 King St #903,San Francisco,CA,94107,1249000,2,2,Mission Bay,1286,971,932,37.7776422,-122.3934181,2004,"37.7776422,-122.39341809999999"
6,Condo/Co-op,125 Gilbert St #5,San Francisco,CA,94103,929000,1,1.5,South of Market,,,667,37.7730847,-122.4020908,1996,"37.7730847,-122.40209080000001"
7,Condo/Co-op,77 Van Ness Ave #505,San Francisco,CA,94102,845000,1,1,Van Ness/Civic Center,947,892,443,37.7760549,-122.4199372,2009,"37.7760549,-122.41993719999999"
8,Multi-Family (2-4 Unit),351 29th Ave,San Francisco,CA,94121,2668000,6,4,Central Richmond,3038,878,,37.782705,-122.4895507,1911,"37.782705,-122.4895507"
9,Condo/Co-op,1260 Clay St #205,San Francisco,CA,94108,799000,1,1,Nob Hill,,,575,37.7935706,-122.4136811,1950,"37.7935706,-122.4136811"
10,Condo/Co-op,115 Carl St #3,San Francisco,CA,94117,685000,1,1,Parnassus/Ashbury Heights,572,1198,360,37.7655847,-122.4504283,1964,"37.7655847,-122.4504283"
11,Condo/Co-op,2987 Harrison St,San Francisco,CA,94110,1325000,3,2,Inner Mission,1658,799,180,37.749783,-122.4113096,1900,"37.749783,-122.4113096"
12,Condo/Co-op,1805 Pine St #22,San Francisco,CA,94109,609000,1,1,Lower Pacific Height,525,1160,484,37.7887911,-122.4256463,1924,"37.788791100000005,-122.4256463"
13,Single Family Residential,1469 Palou Ave,San Francisco,CA,94124,999000,4,2,Bayview,2362,423,,37.7324071,-122.3886318,1900,"37.732407099999996,-122.3886318"
14,Condo/Co-op,400 Beale St #1314,San Francisco,CA,94105,1599000,3,2,South Beach,1433,1116,978,37.7869049,-122.3909202,2001,"37.7869049,-122.39092020000001"
15,Condo/Co-op,10 Innes Ct #106,San Francisco,CA,94124,674998,1,1,Hunters Point,750,900,420,37.7280682,-122.3679965,2018,"37.7280682,-122.3679965"
16,Condo/Co-op,1150 Folsom St #4,San Francisco,CA,94103,999000,1,1.5,South of Market,1200,833,524,37.7759504,-122.4092942,2000,"37.7759504,-122.4092942"
17,Condo/Co-op,631 Folsom St Unit 10C,San Francisco,CA,94107,1249995,2,2,Yerba Buena,1054,1186,994,37.7847302,-122.3968612,2009,"37.784730200000006,-122.39686119999999"
18,Condo/Co-op,1075 Market St #211,San Francisco,CA,94103,579998,0,1,South of Market,423,1371,626,37.7807996,-122.4118342,2018,"37.7807996,-122.4118342"
19,Condo/Co-op,1160 Mission St #810,San Francisco,CA,94103,799000,1,1,South of Market,755,1058,777,37.7787037,-122.4126341,2008,"37.7787037,-122.4126341"
20,Single Family Residential,1231 Judah St,San Francisco,CA,94122,1395000,3,4,Inner Sunset,1720,811,,37.761522,-122.475415,1937,"37.761522,-122.47541499999998"
21,Single Family Residential,817 Guerrero St,San Francisco,CA,94110,2600000,2,2,Eureka Valley/Dolore,,,,37.758045,-122.4232997,1900,"37.758045,-122.4232997"
22,Condo/Co-op,1875 Mission St #108,San Francisco,CA,94103,649000,0,1,Inner Mission,619,1048,526,37.7671013,-122.4194461,2014,"37.7671013,-122.41944609999999"
23,Condo/Co-op,221 Clara St #1,San Francisco,CA,94107,1175000,2,2.5,South of Market,1518,774,471,37.7789397,-122.4027541,2000,"37.7789397,-122.4027541"
24,Condo/Co-op,407 Miguel St,San Francisco,CA,94131,649000,1,1,Glen Park,,,245,37.73668,-122.426822,1890,"37.73668,-122.426822"
25,Condo/Co-op,1477 Dolores St #1477,San Francisco,CA,94110,1598000,2,2,Noe Valley,1483,1078,345,37.7458186,-122.4241859,1906,"37.7458186,-122.42418590000001"
26,Condo/Co-op,51 Innes Ct #207,San Francisco,CA,94124,699777,1,1,San Francisco,720,972,504,37.7272117,-122.367848,2017,"37.727211700000005,-122.367848"
27,Multi-Family (2-4 Unit),2437-2441 Post St,San Francisco,CA,94115,2149000,9,3,Lower Pacific Height,4260,504,,37.7837411,-122.4419644,1895,"37.7837411,-122.4419644"
28,Condo/Co-op,1781 Oak St #3,San Francisco,CA,94117,1049000,2,1,San Francisco,772,1359,,37.7714744,-122.4485572,1924,"37.7714744,-122.4485572"
29,Multi-Family (2-4 Unit),28 Santa Marina St,San Francisco,CA,94110,1250000,3,2,San Francisco,1436,870,,37.7401767,-122.4225598,1977,"37.740176700000006,-122.4225598"
30,Condo/Co-op,4349 18th St,San Francisco,CA,94114,1450000,2,2.5,San Francisco,1209,1199,398,37.7605142,-122.4380156,1904,"37.7605142,-122.4380156"
31,Condo/Co-op,117 Diamond Cove Ter,San Francisco,CA,94134,949000,2,2.5,San Francisco,1368,694,,37.7130704,-122.3941746,2012,"37.7130704,-122.3941746"
32,Condo/Co-op,5301 Mission St #4,San Francisco,CA,94112,779000,2,2,San Francisco,1018,765,307,37.7143074,-122.4426364,2001,"37.714307399999996,-122.44263640000001"
33,Single Family Residential,1222 43rd Ave,San Francisco,CA,94122,949000,2,1,Outer Sunset,1075,883,,37.7638278,-122.5027416,1924,"37.7638278,-122.5027416"
34,Single Family Residential,1670 Newcomb Ave,San Francisco,CA,94124,850000,2,1,Bayview,1041,817,,37.7362275,-122.3909974,1936,"37.736227500000005,-122.39099740000002"
35,Condo/Co-op,10 South Park St #9,San Francisco,CA,94107,1399000,2,1.75,South Beach,1145,1222,792,37.782357,-122.3935037,1993,"37.782357,-122.3935037"
36,Vacant Land,7 Edgar Pl,SAN FRANCISCO,CA,94112,699000,,,SAN FRANCISCO,,,,37.7205952,-122.4524539,nan,"37.720595200000005,-122.45245390000001"
37,Condo/Co-op,401 Harrison St Unit 24G,San Francisco,CA,94105,1149000,1,1,South Beach,760,1512,1225,37.7864989,-122.3921487,2014,"37.7864989,-122.39214869999999"
38,Multi-Family (5+ Unit),888 Waller St,San Francisco,CA,94117,3750000,12,,Buena Vista Park,5820,644,,37.7703816,-122.4383084,1900,"37.7703816,-122.4383084"
39,Condo/Co-op,197-199 Joost Ave #199,San Francisco,CA,94131,878000,2,1,Sunnyside,,,271,37.732239,-122.4394685,1908,"37.732239,-122.4394685"
40,Condo/Co-op,451 Kansas St #573,San Francisco,CA,94107,889000,1,1,Potrero Hill,,,520,37.764113,-122.4029865,2007,"37.764113,-122.4029865"
41,Condo/Co-op,262 6th Ave,San Francisco,CA,94118,1895000,3,2.5,Inner Richmond,2045,927,230,37.7836653,-122.464249,1905,"37.783665299999996,-122.464249"
42,Condo/Co-op,590 Lombard St,San Francisco,CA,94133,2195000,3,3,North Beach,,,,37.8031941,-122.411154,1926,"37.8031941,-122.41115400000001"
43,Condo/Co-op,77 Dow Pl #102,San Francisco,CA,94107,1019000,1,1.5,Yerba Buena,1173,869,870,37.7841561,-122.3966189,2002,"37.7841561,-122.3966189"
44,Condo/Co-op,2448 Lombard St #310,San Francisco,CA,94123,1768000,2,2,Marina,1141,1550,683,37.7993307,-122.4420593,2020,"37.799330700000006,-122.44205929999998"
45,Condo/Co-op,2448 Lombard St #201,San Francisco,CA,94123,988000,1,1,Marina,733,1348,602,37.7993307,-122.4420593,2020,"37.799330700000006,-122.44205929999998"
46,Single Family Residential,1058-1060 Fulton St,San Francisco,CA,94117,4998000,7,5,Alamo Square,,,,37.7775622,-122.4342179,1911,"37.777562200000006,-122.43421790000001"
47,Single Family Residential,906 Capitol Ave,San Francisco,CA,94112,828000,2,1,Ingleside,,,,37.718413,-122.459042,1922,"37.718413,-122.459042"
48,Condo/Co-op,3641 Webster,San Francisco,CA,94117,1895000,2,1.5,Marina,1605,1181,437,37.804322,-122.435565,nan,"37.804322,-122.435565"
49,Condo/Co-op,232 Castro St #2,San Francisco,CA,94114,1875000,2,2,Duboce Triangle,1844,1017,583,37.7651627,-122.4357522,1997,"37.765162700000005,-122.43575220000001"
50,Single Family Residential,308 Los Palmos Dr,San Francisco,CA,94127,1250000,2,1,Miraloma Park,,,,37.7359723,-122.4502996,1960,"37.7359723,-122.45029960000001"
51,Condo/Co-op,1462 Broadway,San Francisco,CA,94109,1195000,2,2,Nob Hill,1171,1020,572,37.796168,-122.421171,1909,"37.796168,-122.421171"
52,Condo/Co-op,170 King St #601,San Francisco,CA,94107,1299999,2,2,South Beach,1005,1294,752,37.7789817,-122.3917515,2007,"37.7789817,-122.39175149999998"
53,Single Family Residential,1968 Greenwich St,San Francisco,CA,94123,3425000,3,2.5,Cow Hollow,2418,1416,200,37.799718,-122.432113,1900,"37.799718,-122.43211299999999"
54,Condo/Co-op,1966 Greenwich St,San Francisco,CA,94123,1400000,2,1.5,Cow Hollow,1066,1313,100,37.7996649,-122.4321307,1900,"37.799664899999996,-122.4321307"
55,Single Family Residential,4330 19th St,San Francisco,CA,94114,2195000,3,1.5,Eureka Valley/Dolore,1845,1190,,37.759306,-122.437727,1906,"37.759306,-122.437727"
56,Condo/Co-op,870 Harrison St #203,SAN FRANCISCO,CA,94107,688000,1,1,SAN FRANCISCO,531,1296,598,37.7797425,-122.4013573,2015,"37.7797425,-122.40135729999999"
57,Condo/Co-op,950 Tennessee St #109,San Francisco,CA,94107,929000,1,1,Central Waterfront,777,1196,544,37.7596747,-122.3898245,2020,"37.759674700000005,-122.38982450000002"
58,Condo/Co-op,3953 24th St #1,San Francisco,CA,94114,799000,1,2,Noe Valley,813,983,625,37.7512478,-122.4307834,2004,"37.751247799999994,-122.43078340000001"
59,Condo/Co-op,710 Arguello Blvd,San Francisco,CA,94118,1445000,3,3,Lone Mountain,1375,1051,395,37.7769035,-122.4583089,1919,"37.776903499999996,-122.45830890000002"
60,Single Family Residential,26 Maddux Ave,San Francisco,CA,94124,1400000,4,2,Silver Terrace,1860,753,,37.7348067,-122.3984875,1941,"37.73480670000001,-122.3984875"
61,Single Family Residential,2614 25th Ave,San Francisco,CA,94116,1149000,3,1,Parkside,1300,884,,37.7387219,-122.481629,1947,"37.7387219,-122.481629"
62,Multi-Family (2-4 Unit),969-971 Oak St,San Francisco,CA,94117,2150000,5,2,Hayes Valley,2227,965,,37.7731313,-122.4351738,1900,"37.773131299999996,-122.43517379999999"
63,Townhouse,200 Dolores St #3,San Francisco,CA,94103,1749000,2,2.5,Mission Dolores,1441,1214,727,37.7660572,-122.4269225,2014,"37.766057200000006,-122.4269225"
64,Condo/Co-op,55 Red Rock Way Unit 110O,San Francisco,CA,94131,489000,0,1,Diamond Heights,474,1032,491,37.7459864,-122.4410176,1972,"37.7459864,-122.4410176"
65,Condo/Co-op,1298 Treat Ave,San Francisco,CA,94110,1249000,4,2,Inner Mission,1250,999,360,37.7493778,-122.4127122,1900,"37.7493778,-122.4127122"
66,Condo/Co-op,1440 Broadway #304,San Francisco,CA,94109,799000,1,1,Nob Hill,685,1166,677,37.7963851,-122.4207265,1982,"37.7963851,-122.42072649999999"
67,Condo/Co-op,1625 Lake St,San Francisco,CA,94121,1549000,2,2,Lake,1577,982,200,37.785911,-122.4771297,1995,"37.785911,-122.4771297"
68,Condo/Co-op,1483 Oak St,San Francisco,CA,94117,1795000,3,2.5,Haight Ashbury,2584,695,250,37.772086,-122.443644,1900,"37.772086,-122.44364399999999"
69,Multi-Family (2-4 Unit),1029 Anza St,San Francisco,CA,94118,1495000,3,2,Inner Richmond,2300,650,,37.7791099,-122.4593516,1905,"37.7791099,-122.45935159999998"
70,Single Family Residential,32 Josiah Ave,San Francisco,CA,94112,799000,1,1,Ingleside,,,,37.7186265,-122.4529937,1900,"37.7186265,-122.4529937"
71,Multi-Family (2-4 Unit),2637 Baker St,San Francisco,CA,94123,2998000,9,2,Cow Hollow,5055,593,,37.7953907,-122.4456377,1913,"37.7953907,-122.4456377"
72,Condo/Co-op,435 China Basin St #521,SAN FRANCISCO,CA,94158,1550000,2,2,SAN FRANCISCO,1259,1231,783,37.7715936,-122.3885893,2012,"37.771593599999996,-122.38858929999999"
73,Condo/Co-op,2172 Pine St #2,San Francisco,CA,94115,1249000,1,1,Lower Pacific Height,1201,1040,330,37.7885051,-122.4315366,1875,"37.7885051,-122.43153659999999"
74,Multi-Family (5+ Unit),500-504 8th Ave,San Francisco,CA,94118,2868000,6,,Inner Richmond,5015,572,,37.7788932,-122.4661732,1907,"37.778893200000006,-122.46617320000001"
75,Condo/Co-op,188 Minna St Unit 32D,San Francisco,CA,94105,3849000,2,2.5,Yerba Buena,1792,2148,2744,37.7861462,-122.4013007,2005,"37.786146200000005,-122.4013007"
76,Condo/Co-op,494 Filbert St,San Francisco,CA,94133,1295000,2,1,Telegraph Hill,981,1320,120,37.8017553,-122.4077021,1939,"37.801755299999996,-122.4077021"
77,Single Family Residential,421 Point Lobos Ave,San Francisco,CA,94121,1395000,2,2,Outer Richmond,1443,967,,37.7796376,-122.5077261,1941,"37.7796376,-122.5077261"
78,Condo/Co-op,355 Bryant St #104,San Francisco,CA,94107,2495000,2,2,South Beach,2206,1131,950,37.7835506,-122.3924215,1917,"37.7835506,-122.39242150000001"
79,Single Family Residential,530 Crescent Ave,San Francisco,CA,94110,1179000,2,1,Bernal Heights,1125,1048,,37.7347192,-122.415745,1938,"37.7347192,-122.415745"
80,Condo/Co-op,1410 Shrader St,San Francisco,CA,94117,1645000,2,1.5,Parnassus/Ashbury Heights,1607,1024,170,37.762191,-122.450426,1916,"37.762190999999994,-122.45042600000001"
81,Condo/Co-op,400 Beale St #506,San Francisco,CA,94105,1049000,2,1,South Beach,1038,1011,,37.7869049,-122.3909202,2002,"37.7869049,-122.39092020000001"
82,Condo/Co-op,1788 Clay St #304,San Francisco,CA,94109,1350000,2,2,Nob Hill,975,1385,723,37.7925699,-122.4222498,2014,"37.7925699,-122.42224979999999"
83,Condo/Co-op,178 Randall St,San Francisco,CA,94131,1695000,2,2.5,Glen Park,1465,1157,392,37.7398549,-122.4274019,2008,"37.7398549,-122.4274019"
84,Condo/Co-op,250 King St #952,San Francisco,CA,94107,2399000,3,3,Mission Bay,2450,979,1812,37.7776422,-122.3934181,2004,"37.7776422,-122.39341809999999"
85,Condo/Co-op,1895 Pacific Ave #104,San Francisco,CA,94109,599000,0,1,Pacific Heights,512,1170,440,37.7941676,-122.4262431,1931,"37.7941676,-122.4262431"
86,Single Family Residential,710 Laguna Honda Blvd,SAN FRANCISCO,CA,94127,1199000,3,1,SAN FRANCISCO,1471,815,,37.7445699,-122.4570518,1927,"37.744569899999995,-122.45705179999999"
87,Single Family Residential,58507 Dowville West,Huntington Lake,CA,93634,119000,1,1,Huntington Lake,608,196,49,37.782381,-122.41655,nan,"37.782381,-122.41655"
88,Single Family Residential,52 Santa Marina St,San Francisco,CA,94110,1645000,3,2,Bernal Heights,1601,1027,,37.739964,-122.422037,1909,"37.739964,-122.42203700000002"
89,Condo/Co-op,2031 Hayes St,San Francisco,CA,94117,1935000,3,2.5,San Francisco County,1670,1159,,37.77335709,-122.4499369,1910,"37.773357085,-122.4499369"
90,Single Family Residential,81 Pinehurst Way,San Francisco,CA,94127,1849000,4,3,Mount Davidson Manor,2468,749,,37.728052,-122.4652006,1928,"37.728052000000005,-122.4652006"
91,Single Family Residential,2 Lake Forest Ct,San Francisco,CA,94131,1495000,3,2,Forest Knolls,1408,1062,,37.7545778,-122.460004,1961,"37.7545778,-122.460004"
92,Condo/Co-op,1080 Chestnut St Unit 11B,San Francisco,CA,94109,3395000,3,2.5,Russian Hill,2105,1613,3122,37.803057,-122.4210212,1962,"37.803057,-122.42102120000001"
93,Condo/Co-op,49 Zoe St #6,San Francisco,CA,94107,879000,1,1.5,South Beach,987,891,550,37.7800761,-122.3960123,1997,"37.7800761,-122.3960123"
94,Single Family Residential,537 Magellan Ave,San Francisco,CA,94116,2275000,5,3.5,Forest Hill,2944,773,,37.7440274,-122.4669143,1920,"37.7440274,-122.4669143"
95,Condo/Co-op,436-440 Scott St #438,San Francisco,CA,94117,1549000,3,2.5,Hayes Valley,1354,1144,350,37.7738902,-122.4355022,1895,"37.7738902,-122.43550220000002"
96,Condo/Co-op,1300 22nd St #107,San Francisco,CA,94107,795000,1,1,Potrero Hill,565,1407,568,37.7578379,-122.3944714,2016,"37.7578379,-122.39447140000001"
97,Condo/Co-op,200 Brannan St #234,San Francisco,CA,94107,1995000,2,2,South Beach,1892,1054,910,37.7836002,-122.3907074,2004,"37.7836002,-122.3907074"
98,Condo/Co-op,1776 Sacramento St #708,San Francisco,CA,94109,1498000,3,2,Nob Hill,1526,982,890,37.7916183,-122.4220982,1992,"37.791618299999996,-122.42209820000001"
99,Condo/Co-op,338 Spear St Unit 16G,San Francisco,CA,94105,999000,1,1,South Beach,807,1238,891,37.7894137,-122.3906433,2009,"37.789413700000004,-122.3906433"
100,Multi-Family (2-4 Unit),237 San Jose Ave,San Francisco,CA,94110,2800000,11,4.5,Noe Valley,4800,583,,37.7514387,-122.4212597,1904,"37.7514387,-122.42125970000001"
101,Multi-Family (2-4 Unit),170 Pfeiffer St,San Francisco,CA,94133,5400000,6,4.5,Telegraph Hill,,,,37.8048306,-122.4096277,nan,"37.8048306,-122.4096277"
102,Condo/Co-op,301 Main St Unit 7C,San Francisco,CA,94105,2099000,3,2.5,South Beach,1752,1198,1059,37.7895974,-122.3911965,2008,"37.7895974,-122.3911965"
103,Condo/Co-op,72 Townsend St #401,San Francisco,CA,94107,1029000,1,1,South Beach,788,1306,792,37.781388,-122.3903525,2015,"37.781388,-122.39035249999999"
104,Townhouse,232 Friedell St,San Francisco,CA,94124,799999,2,2,Hunters Point,,,271,37.728432,-122.3701131,2016,"37.728432,-122.37011310000001"
105,Condo/Co-op,439 Greenwich St #9,San Francisco,CA,94133,750000,1,1,Telegraph Hill,535,1402,525,37.8023778,-122.4070114,1979,"37.8023778,-122.4070114"
106,Condo/Co-op,456 Carl St,San Francisco,CA,94117,1199000,3,2,Parnassus/Ashbury Heights,1271,943,485,37.765018,-122.4569962,1990,"37.765018,-122.4569962"
107,Townhouse,77 Dow Pl #711,San Francisco,CA,94107,1025000,1,1.5,Yerba Buena,1293,793,896,37.7841561,-122.3966189,2002,"37.7841561,-122.3966189"
108,Condo/Co-op,2100 Green St #704,San Francisco,CA,94123,3495000,2,2,Pacific Heights,1866,1873,1618,37.7965894,-122.4339807,1928,"37.796589399999995,-122.4339807"
109,Single Family Residential,124 Miguel St,San Francisco,CA,94131,1395000,2,2,Glen Park,1550,900,,37.7379423,-122.4286419,1903,"37.73794229999999,-122.4286419"
110,Single Family Residential,627 16th Ave,San Francisco,CA,94118,1350000,3,1,Central Richmond,2076,650,,37.776172,-122.475109,1918,"37.776171999999995,-122.475109"
111,Single Family Residential,3467 Pacific Ave,San Francisco,CA,94118,8950000,6,6,Presidio Heights,5625,1591,,37.7908948,-122.4520759,1909,"37.7908948,-122.45207590000001"
112,Single Family Residential,109 Joost Ave,San Francisco,CA,94131,1028000,2,1,Sunnyside,903,1138,,37.7322456,-122.4378105,1923,"37.7322456,-122.4378105"
113,Condo/Co-op,555 4th St #913,San Francisco,CA,94107,1288000,2,2,South Beach,907,1420,664,37.7794218,-122.3967124,2006,"37.7794218,-122.39671240000001"
114,Condo/Co-op,99 Rausch St #320,San Francisco,CA,94103,659000,0,1,South of Market,,,515,37.7762348,-122.4090223,2017,"37.7762348,-122.4090223"
115,Condo/Co-op,52 Innes Ct #203,San Francisco,CA,94124,649888,1,1,Hunters Point,670,970,460,37.7276224,-122.3674287,2017,"37.7276224,-122.3674287"
116,Condo/Co-op,175 Red Rock Way Unit 207K,San Francisco,CA,94131,529000,0,1,Diamond Heights,592,894,492,37.745807,-122.442069,1972,"37.745807,-122.44206899999999"
117,Condo/Co-op,1047 Mississippi St #9,San Francisco,CA,94107,949000,1,1.5,Potrero Hill,1385,685,526,37.7531638,-122.3933731,2001,"37.753163799999996,-122.39337309999999"
118,Single Family Residential,320 Ocean Ave,San Francisco,CA,94112-2532,1498888,5,3,Mission Terrace,2432,616,,37.7232378,-122.4436053,1931,"37.7232378,-122.4436053"
119,Single Family Residential,715 Foerster St,San Francisco,CA,94127,1735000,4,2.5,Miraloma Park,1909,909,25,37.734141,-122.449219,1960,"37.734140999999994,-122.449219"
120,Condo/Co-op,501 Crescent Way #5107,San Francisco,CA,94134,728000,2,2,Candlestick Point,1095,665,540,37.7119288,-122.3886055,2006,"37.711928799999995,-122.3886055"
121,Condo/Co-op,875 Indiana St #324,San Francisco,CA,94107,975000,1,1.5,Central Waterfront,852,1144,523,37.7596716,-122.3908629,2009,"37.759671600000004,-122.3908629"
122,Single Family Residential,,San Francisco,CA,94124,925000,3,1,Bayview,1155,801,,37.7315866,-122.3860899,1961,"37.73158660000001,-122.3860899"
123,Single Family Residential,1710 Diamond St,San Francisco,CA,94131,4498800,4,3.5,Noe Valley,3645,1234,,37.7438471,-122.4358179,2014,"37.7438471,-122.4358179"
124,Condo/Co-op,235 Berry St #201,San Francisco,CA,94158,899000,1,1,Mission Bay,840,1070,689,37.774703,-122.3940893,2007,"37.774703,-122.39408929999999"
125,Single Family Residential,1 Byron Ct,San Francisco,CA,94112,1388000,4,3,Crocker Amazon,2003,693,,37.7096358,-122.4433842,1978,"37.709635799999994,-122.4433842"
126,Single Family Residential,439 E Princeton St,San Francisco,CA,94134,999000,4,2.5,Portola,1306,765,,37.7243406,-122.4140636,1949,"37.724340600000005,-122.41406359999999"
127,Condo/Co-op,3731 Fillmore St #6,San Francisco,CA,94123,995000,1,1,Marina,792,1256,430,37.8049149,-122.4375445,1928,"37.8049149,-122.4375445"
128,Single Family Residential,4118 20th St,San Francisco,CA,94114,3350000,4,3.5,Eureka Valley/Dolore,2287,1465,,37.7579691,-122.4329885,1905,"37.7579691,-122.43298850000001"
129,Single Family Residential,532 Lyon St,San Francisco,CA,94117,4695000,5,4.5,North Panhandle,3919,1198,,37.7758013,-122.4427128,1904,"37.7758013,-122.44271280000001"
130,Condo/Co-op,1140 Page St,San Francisco,CA,94117,2289000,3,2,Haight Ashbury,1850,1237,510,37.7721199,-122.4395674,2012,"37.7721199,-122.43956740000002"
131,Condo/Co-op,750 Lake St,San Francisco,CA,94118,1895000,2,2,Lake,,,,37.7867156,-122.4677246,nan,"37.7867156,-122.46772460000001"
132,Single Family Residential,137 Ashton Ave,San Francisco,CA,94112,1595000,3,2.5,Merced Heights,1605,994,,37.7207164,-122.4624475,1924,"37.7207164,-122.46244750000001"
133,Condo/Co-op,1832 Page St #2,San Francisco,CA,94117,995000,2,2,Haight Ashbury,990,1005,409,37.7706724,-122.4510696,1900,"37.7706724,-122.4510696"
134,Condo/Co-op,3395 Market St,San Francisco,CA,94114,825000,1,1,Eureka Valley/Dolore,742,1112,396,37.7579936,-122.4430826,1906,"37.7579936,-122.44308259999998"
135,Single Family Residential,1089 Clayton St,San Francisco,CA,94117,2190000,3,2,Buena Vista Park,1615,1356,,37.7627947,-122.4471883,1941,"37.76279470000001,-122.4471883"
136,Condo/Co-op,1 Hawthorne St Unit 6J,San Francisco,CA,94105,1395000,2,2,Yerba Buena,1247,1119,1269,37.7857356,-122.3989521,2010,"37.7857356,-122.39895209999999"
137,Single Family Residential,326 Brunswick St,San Francisco,CA,94112,1498000,4,3,Crocker Amazon,,,,37.7112595,-122.4416479,1942,"37.7112595,-122.4416479"
138,Single Family Residential,40 Hanover St,SAN FRANCISCO,CA,94112,998000,2,1,SAN FRANCISCO,818,1220,,37.7101765,-122.440283,1946,"37.7101765,-122.44028300000001"
139,Condo/Co-op,471 Jersey St,San Francisco,CA,94114,1779000,3,1.5,Noe Valley,1555,1144,400,37.7501559,-122.435556,1923,"37.7501559,-122.435556"
140,Townhouse,1736 A 20th Ave,San Francisco,CA,94122,1450000,3,3,Central Sunset,2225,652,270,37.755423,-122.477333,2001,"37.755423,-122.477333"
141,Multi-Family (2-4 Unit),243-245 Corbett Ave,San Francisco,CA,94114,1998000,4,4,Corona Heights,2868,697,,37.7612334,-122.4436419,1975,"37.761233399999995,-122.4436419"
142,Condo/Co-op,2049 Ellis St,San Francisco,CA,94115,1595000,3,2,Anza Vista,2001,797,305,37.7811329,-122.439895,1902,"37.781132899999996,-122.43989499999999"
143,Multi-Family (2-4 Unit),5139-5141 Geary Blvd,San Francisco,CA,94118,1995000,4,4.5,Central Richmond,3180,627,,37.7802735,-122.4746988,1921,"37.7802735,-122.47469879999998"
144,Single Family Residential,27 Starview Way,San Francisco,CA,94131,1395000,2,1,Midtown Terrace,1062,1314,,37.7500012,-122.4517442,1956,"37.75000120000001,-122.45174420000001"
145,Condo/Co-op,446 Collingwood St,San Francisco,CA,94114,1995000,3,2,Eureka Valley/Dolore,1570,1271,117,37.7552395,-122.4358996,1968,"37.7552395,-122.4358996"
146,Single Family Residential,1374 46th Ave,San Francisco,CA,94122,1098000,8,3,Outer Sunset,2204,498,,37.7609266,-122.5057497,1915,"37.7609266,-122.5057497"
147,Single Family Residential,649 28th St,San Francisco,CA,94131,1700000,2,1,Noe Valley,1138,1494,,37.7445324,-122.4367649,1941,"37.7445324,-122.4367649"
148,Condo/Co-op,1177 California St #1703,San Francisco,CA,94108,638000,0,1,Nob Hill,411,1552,932,37.7910262,-122.4136476,1978,"37.791026200000005,-122.4136476"
149,Condo/Co-op,1000 3rd St #303,San Francisco,CA,94158,1825000,2,2,Mission Bay,1234,1479,928,37.7752125,-122.3902276,2018,"37.7752125,-122.39022759999999"
150,Single Family Residential,133 Cresta Vista Dr,San Francisco,CA,94127,1898000,4,3,Westwood Highlands,2400,791,,37.735655,-122.4567422,1988,"37.735655,-122.45674220000001"
151,Multi-Family (2-4 Unit),337-339 Monterey Blvd,San Francisco,CA,94131,1595000,3,2,Sunnyside,2602,613,,37.7312751,-122.4429435,2016,"37.7312751,-122.44294350000001"
152,Townhouse,1338 Filbert St,San Francisco,CA,94109,3998000,3,3.5,Russian Hill,2751,1453,985,37.800098,-122.4215386,1906,"37.800098,-122.42153859999999"
153,Condo/Co-op,11 High St #203,San Francisco,CA,94114,1398000,2,2,Noe Valley,1208,1157,450,37.7488223,-122.4432005,1980,"37.7488223,-122.44320049999999"
154,Single Family Residential,579 Moscow St,San Francisco,CA,94112,1285000,5,3,Excelsior,2090,615,,37.7183955,-122.4295268,nan,"37.7183955,-122.42952679999999"
155,Multi-Family (5+ Unit),4740 Balboa St,San Francisco,CA,94121,11000000,6,,Outer Richmond,15659,702,,37.775393,-122.509784,1928,"37.775393,-122.50978400000001"
156,Condo/Co-op,445 Francisco St Unit F601,San Francisco,CA,94133,2198000,2,2,North Beach,1311,1677,,37.8046669,-122.4126295,2001,"37.8046669,-122.4126295"
157,Multi-Family (5+ Unit),3830 19th St,San Francisco,CA,94114,2800000,6,,Eureka Valley/Dolore,4740,591,,37.7598626,-122.4290725,1913,"37.7598626,-122.4290725"
158,Condo/Co-op,1244 12th Ave,San Francisco,CA,94122,1275000,3,1.5,Inner Sunset,1249,1021,200,37.7649479,-122.469266,1905,"37.764947899999996,-122.46926599999999"
159,Single Family Residential,198 Bradford St,San Francisco,CA,94110,1498000,4,2,Bernal Heights,1940,772,,37.7398866,-122.4098379,nan,"37.739886600000006,-122.4098379"
160,Multi-Family (2-4 Unit),635-637 Baker St,San Francisco,CA,94117,2775000,8,5,North Panhandle,4200,661,,37.7770339,-122.4419544,1900,"37.7770339,-122.4419544"
161,Condo/Co-op,875 Indiana St #326,SAN FRANCISCO,CA,94107,989000,1,1.5,SAN FRANCISCO,855,1157,524,37.7596716,-122.3908629,2009,"37.759671600000004,-122.3908629"
162,Condo/Co-op,333 Beale St Unit 4C,San Francisco,CA,94105,1228000,1,1.5,South Beach,916,1341,1134,37.7884937,-122.3918797,2015,"37.788493700000004,-122.3918797"
163,Single Family Residential,240 Chenery St,San Francisco,CA,94131,4500000,4,4.5,Glen Park,3650,1233,,37.7384164,-122.4267064,1908,"37.7384164,-122.4267064"
164,Condo/Co-op,1755 Jackson St #406,San Francisco,CA,94109,2250000,3,3,Pacific Heights,1906,1180,750,37.7935378,-122.4240021,1923,"37.793537799999996,-122.4240021"
165,Multi-Family (5+ Unit),402 Duboce Ave,San Francisco,CA,94117,6350000,17,,Duboce Triangle,9399,676,,37.7695951,-122.4301556,1908,"37.769595100000004,-122.43015559999999"
166,Condo/Co-op,81 Lansing St #410,San Francisco,CA,94105,949000,1,1,South Beach,855,1110,743,37.7856392,-122.3940066,1995,"37.785639200000006,-122.39400659999998"
167,Multi-Family (2-4 Unit),729-733 Vallejo St,San Francisco,CA,94133,1299000,6,2,North Beach,3660,355,,37.7983197,-122.4093184,1906,"37.79831970000001,-122.40931840000002"
168,Townhouse,2001 McAllister St #254,San Francisco,CA,94118,1450000,2,2.5,North Panhandle,1407,1031,931,37.7763812,-122.4456902,2002,"37.7763812,-122.4456902"
169,Single Family Residential,4073-4075 17th St,San Francisco,CA,94114,2795000,3,3,Corona Heights,2336,1196,,37.7622875,-122.4367055,1907,"37.7622875,-122.43670549999999"
170,Single Family Residential,3020 Scott St,San Francisco,CA,94123,3980000,3,3.5,Cow Hollow,2400,1658,,37.7980388,-122.4405642,1900,"37.7980388,-122.4405642"
171,Condo/Co-op,338 Main St Unit 35D,San Francisco,CA,94105,1498000,1,1,South Beach,963,1556,1143,37.7886733,-122.3914178,2016,"37.78867329999999,-122.39141780000001"
172,Multi-Family (5+ Unit),674-678 Haight St,San Francisco,CA,94117,3100000,9,,Hayes Valley,5655,548,,37.7719836,-122.4333667,1890,"37.7719836,-122.43336670000001"
173,Condo/Co-op,2200 Sacramento St #1305,San Francisco,CA,94115,2050000,1,2,Pacific Heights,,,682,37.7906814,-122.4294984,1964,"37.790681400000004,-122.42949840000001"
174,Condo/Co-op,1333 Jones St #1609,San Francisco,CA,94109,1250000,1,1,Nob Hill,,,1185,37.793621,-122.4148823,1961,"37.793621,-122.41488229999999"
175,Condo/Co-op,2946 Pierce,San Francisco,CA,94123,4250000,3,3.5,Cow Hollow,2798,1519,300,37.797331,-122.438648,nan,"37.797331,-122.438648"
176,Single Family Residential,867 27th Ave,San Francisco,CA,94121,799950,3,2,Central Richmond,1666,480,,37.7730701,-122.4866809,1931,"37.7730701,-122.48668090000001"
177,Single Family Residential,366 Quintara St,San Francisco,CA,94116,1325000,2,1,Golden Gate Heights,,,,37.7490791,-122.4695788,1949,"37.7490791,-122.4695788"
178,Single Family Residential,311 Amber Dr,San Francisco,CA,94131,2350000,3,2,Diamond Heights,1648,1426,,37.7445366,-122.4422784,1963,"37.7445366,-122.44227839999999"
179,Condo/Co-op,1177 California St #623,San Francisco,CA,94108,725000,1,1,Nob Hill,706,1027,1139,37.7910262,-122.4136476,1978,"37.791026200000005,-122.4136476"
180,Single Family Residential,46 Porter St,SAN FRANCISCO,CA,94110,1199000,3,2,SAN FRANCISCO,1420,844,,37.7343942,-122.4183776,1900,"37.734394200000004,-122.41837759999999"
181,Single Family Residential,78 Cotter St,San Francisco,CA,94112,995000,4,3,San Francisco County,1580,630,,37.7280723,-122.4343947,1905,"37.7280723,-122.4343947"
182,Single Family Residential,63 Carmel St,San Francisco,CA,94117,3650000,4,4.5,Parnassus/Ashbury Heights,4588,796,,37.7607091,-122.4480468,1922,"37.7607091,-122.44804679999999"
183,Single Family Residential,930 Naples St,San Francisco,CA,94112,1250000,3,2,Excelsior,1540,812,,37.715078,-122.435899,1921,"37.715078000000005,-122.43589899999999"
184,Condo/Co-op,965 Folsom St #202,San Francisco,CA,94107,1100000,1,1.5,South of Market,1547,711,705,37.7790012,-122.404485,2000,"37.7790012,-122.40448500000001"
185,Condo/Co-op,222 Eureka St,San Francisco,CA,94114,1495000,2,1.5,Eureka Valley/Dolore,1365,1095,375,37.758628,-122.438388,1902,"37.758628,-122.43838799999999"
186,Condo/Co-op,4397 25th St,San Francisco,CA,94114,1399000,3,1,Noe Valley,1339,1045,430,37.749249,-122.43815,1908,"37.749249,-122.43815"
187,Condo/Co-op,280 Spear St Unit 4U,San Francisco,CA,94105,945000,1,1,South Beach,671,1408,1078,37.7903739,-122.3913812,2020,"37.7903739,-122.3913812"
188,Single Family Residential,663 Marina Blvd,San Francisco,CA,94123,9250000,6,6.5,Marina,5420,1707,,37.8052169,-122.4447837,1937,"37.8052169,-122.4447837"
189,Single Family Residential,1401 Shafter Ave,San Francisco,CA,94124,980000,3,2.5,Bayview,1412,694,,37.7288266,-122.3872686,1929,"37.7288266,-122.3872686"
190,Multi-Family (2-4 Unit),1061-1065 Oak St,San Francisco,CA,94117,2500000,4,2,Hayes Valley,3418,731,,37.7729291,-122.4367287,1900,"37.772929100000006,-122.4367287"
191,Single Family Residential,454 32nd Ave,SAN FRANCISCO,CA,94121,1888000,3,3.5,SAN FRANCISCO,1968,959,,37.7806473,-122.4920309,1924,"37.7806473,-122.49203090000002"
192,Condo/Co-op,388 Fulton St #310,San Francisco,CA,94102,310798,0,1,Hayes Valley,347,896,445,37.7790409,-122.4231102,2016,"37.7790409,-122.4231102"
193,Condo/Co-op,301 Mission St Unit 3H,San Francisco,CA,94105,754000,1,1,Yerba Buena,773,975,1531,37.7903824,-122.3961531,2009,"37.7903824,-122.39615309999999"
194,Condo/Co-op,4475 24th St #4,San Francisco,CA,94114,1750000,3,2,Noe Valley,1654,1058,308,37.7506157,-122.4422679,1979,"37.7506157,-122.4422679"
195,Condo/Co-op,1075 Market St #612,San Francisco,CA,94103,890000,1,1,699 - Not Defined,662,1344,738,37.7807996,-122.4118342,2018,"37.7807996,-122.4118342"
196,Condo/Co-op,461 2nd St Unit C135,San Francisco,CA,94107,1189000,1,1,South Beach,1317,903,709,37.7834473,-122.3936481,1907,"37.7834473,-122.3936481"
197,Multi-Family (2-4 Unit),1642-1644 Waller St,San Francisco,CA,94117,1995000,,,Haight Ashbury,2713,735,,37.7687206,-122.4513586,1904,"37.7687206,-122.45135859999999"
198,Condo/Co-op,2468 Bush Unit A,San Francisco,CA,94115,698000,1,1,Lower Pacific Height,,,188,37.786645,-122.4378985,1900,"37.786645,-122.43789850000002"
199,Condo/Co-op,1333 Jones St #1102,San Francisco,CA,94109,2199000,1,2,Nob Hill,1590,1383,1592,37.793621,-122.4148823,1960,"37.793621,-122.41488229999999"
200,Single Family Residential,1759 8th Ave,San Francisco,CA,94122,1325000,3,2,Inner Sunset,1760,753,,37.755515,-122.464973,1925,"37.755515,-122.464973"
201,Single Family Residential,1547 Thomas Ave,SAN FRANCISCO,CA,94124,899000,2,1.5,SAN FRANCISCO,1425,631,,37.7297137,-122.3904951,1941,"37.729713700000005,-122.3904951"
202,Condo/Co-op,3714 23rd St,San Francisco,CA,94114,1525000,3,2,Noe Valley,,,223,37.753561,-122.4257779,1900,"37.753561,-122.42577790000001"
203,Condo/Co-op,199 Tiffany Ave #210,San Francisco,CA,94110,1249000,2,2,Bernal Heights,1171,1067,731,37.744274,-122.4213436,2004,"37.744274,-122.4213436"
204,Single Family Residential,1500 Visitacion Ave,San Francisco,CA,94134,949000,3,2,San Francisco,1068,889,,37.7131716,-122.4135547,1944,"37.7131716,-122.4135547"
205,Single Family Residential,1246 47th Ave,San Francisco,CA,94122,650000,1,1,Outer Sunset,550,1182,,37.7632964,-122.5067807,1923,"37.763296399999994,-122.50678070000001"
206,Condo/Co-op,201 Folsom St Unit 6G,San Francisco,CA,94105,1795000,2,2,South Beach,1401,1281,1216,37.7887059,-122.3922385,2016,"37.788705900000004,-122.3922385"
207,Single Family Residential,1244 47th Ave,San Francisco,CA,94122,1088888,2,1,Outer Sunset,1056,1031,,37.7632902,-122.5070137,1923,"37.7632902,-122.50701370000002"
208,Condo/Co-op,1314 Greenwich St,San Francisco,CA,94109,855000,1,1,San Francisco,,,525,37.8009478,-122.421418,1924,"37.800947799999996,-122.42141799999999"
209,Single Family Residential,1324 Rhode Island St,San Francisco,CA,94107,4075000,4,4,Potrero Hill,3605,1130,,37.7529052,-122.4016184,1913,"37.7529052,-122.40161840000002"
210,Condo/Co-op,1635 California St #24,San Francisco,CA,94109,1099000,2,2,Nob Hill,915,1201,639,37.7901833,-122.4213456,2005,"37.790183299999995,-122.4213456"
211,Condo/Co-op,601 4th St #302,San Francisco,CA,94107,965000,1,1,South Beach,1026,941,576,37.7781631,-122.3957778,1918,"37.7781631,-122.39577779999999"
212,Condo/Co-op,1188 Valencia St #210,San Francisco,CA,94110,889000,1,1,Inner Mission,,,484,37.75392,-122.4210164,2018,"37.75392,-122.42101640000001"
213,Single Family Residential,661 Rockdale Dr,San Francisco,CA,94127,1325000,2,1,Miraloma Park,1150,1152,,37.7408812,-122.4507711,1930,"37.740881200000004,-122.45077109999998"
214,Condo/Co-op,53 Wilder St #403,San Francisco,CA,94131,1295000,2,2,Glen Park,1231,1052,688,37.7339803,-122.4336263,2006,"37.7339803,-122.4336263"
215,Condo/Co-op,1775 Broadway #8,SAN FRANCISCO,CA,94109,994500,1,1,SAN FRANCISCO,728,1366,662,37.795108,-122.426207,1925,"37.795108,-122.426207"
216,Condo/Co-op,301 Mission St Unit 33E,San Francisco,CA,94105,1995000,2,2,Yerba Buena,1714,1164,2670,37.7903824,-122.3961531,2009,"37.7903824,-122.39615309999999"
217,Multi-Family (2-4 Unit),2920 Gough St,San Francisco,CA,94123,3500000,4,3,Cow Hollow,3700,946,,37.8003671,-122.4274242,1937,"37.8003671,-122.4274242"
218,Single Family Residential,4412 17th St,San Francisco,CA,94114,2350000,3,2.5,Corona Heights,2073,1134,,37.762178,-122.443736,1907,"37.762178000000006,-122.44373600000002"
219,Multi-Family (2-4 Unit),1736-1738 Fell St,San Francisco,CA,94117,3495000,,,North Panhandle,6825,512,,37.7731919,-122.4467019,1900,"37.7731919,-122.44670190000001"
220,Condo/Co-op,158 Laidley St #3,San Francisco,CA,94131,895000,1,1,Glen Park,660,1356,268,37.7392008,-122.4289569,1960,"37.7392008,-122.42895690000002"
221,Condo/Co-op,1000 Pennsylvania Ave #12,San Francisco,CA,94107,1295000,2,3,Potrero Hill,1727,750,769,37.7539025,-122.3930979,2001,"37.7539025,-122.3930979"
222,Single Family Residential,2576 26th Ave,San Francisco,CA,94116,1128000,4,1.25,Parkside,2037,554,,37.7394617,-122.4827013,1931,"37.7394617,-122.4827013"
223,Single Family Residential,42 Meda Ave,SAN FRANCISCO,CA,94112,1309000,4,2,SAN FRANCISCO,1349,970,,37.7238428,-122.4416739,1916,"37.72384279999999,-122.44167390000001"
224,Single Family Residential,2956 19th Ave,SAN FRANCISCO,CA,94132,2098000,4,3,SAN FRANCISCO,2512,835,,37.7333515,-122.4747418,1936,"37.733351500000005,-122.4747418"
225,Single Family Residential,86 Fair Oaks St,San Francisco,CA,94110,2095000,2,1,Eureka Valley/Dolore,1740,1204,,37.7554038,-122.4245938,1908,"37.755403799999996,-122.42459380000001"
226,Condo/Co-op,765 Market St Ph 2CD,San Francisco,CA,94103,11000000,3,3.5,South of Market,3548,3100,5068,37.786097,-122.4041629,2001,"37.786097,-122.40416289999999"
227,Condo/Co-op,3418 26th St #11,San Francisco,CA,94110,719000,1,1,Inner Mission,,,570,37.7492018,-122.4189838,2014,"37.7492018,-122.41898379999999"
228,Single Family Residential,1407 Shafter Ave,San Francisco,CA,94124,950000,4,3,Bayview,,,,37.7288748,-122.387324,1920,"37.7288748,-122.38732399999999"
229,Condo/Co-op,339 Presidio Ave,San Francisco,CA,94115,1825000,3,1,Presidio Heights,1553,1175,104,37.7885096,-122.447168,1924,"37.788509600000005,-122.44716799999999"
230,Condo/Co-op,875 Vermont St #105,San Francisco,CA,94107,699000,1,1,Potrero Hill,,,184,37.7585731,-122.403654,nan,"37.7585731,-122.403654"
231,Condo/Co-op,756 Lake St,San Francisco,CA,94118,1750000,2,2,Lake,,,,37.7867145,-122.46775,nan,"37.7867145,-122.46775"
232,Single Family Residential,326 Hale St,SAN FRANCISCO,CA,94134,995000,2,2,SAN FRANCISCO,1416,703,,37.7314436,-122.4114479,1950,"37.7314436,-122.4114479"
233,Condo/Co-op,333 Beale St Unit 8A,San Francisco,CA,94105,998000,1,1,South Beach,873,1143,985,37.7884937,-122.3918797,2015,"37.788493700000004,-122.3918797"
234,Single Family Residential,152 Fairmount St,San Francisco,CA,94131,2195000,3,2,Glen Park,1716,1279,,37.7389943,-122.4266784,nan,"37.738994299999995,-122.4266784"
235,Condo/Co-op,81 Frank Norris St #304,San Francisco,CA,94109,525000,1,1,Downtown,632,831,462,37.7890804,-122.4200528,2007,"37.7890804,-122.4200528"
236,Single Family Residential,411 Vallejo St,SAN FRANCISCO,CA,94133,2480000,2,2.5,SAN FRANCISCO,1240,2000,,37.798997,-122.4044668,1906,"37.798997,-122.40446680000001"
237,Condo/Co-op,56 Danvers St,San Francisco,CA,94114,2000000,2,2,Eureka Valley/Dolore,,,300,37.7606318,-122.4438077,nan,"37.7606318,-122.44380770000001"
238,Multi-Family (2-4 Unit),148-152 Fillmore St,San Francisco,CA,94117,3250000,7,5,Hayes Valley,3801,855,,37.7710169,-122.4299664,1900,"37.7710169,-122.42996640000001"
239,Single Family Residential,1045 Cole St,San Francisco,CA,94117,3995000,4,3.5,Parnassus/Ashbury Heights,3472,1151,,37.7642483,-122.4498422,1905,"37.7642483,-122.4498422"
240,Condo/Co-op,1264 Dolores St,San Francisco,CA,94110,1749000,2,2,Noe Valley,1738,1006,375,37.7491533,-122.4252791,2012,"37.749153299999996,-122.4252791"
241,Single Family Residential,623 Athens St,San Francisco,CA,94112,948000,2,2,Excelsior,1270,746,,37.7180551,-122.4308761,1927,"37.7180551,-122.43087609999999"
242,Single Family Residential,892 Ashbury St,San Francisco,CA,94117,4995000,5,4,Buena Vista Park,4290,1164,,37.7657851,-122.445817,1905,"37.7657851,-122.44581699999999"
243,Condo/Co-op,1870 Jackson St #301,San Francisco,CA,94109,1650000,2,1,Pacific Heights,1350,1222,800,37.7938595,-122.4258544,1931,"37.793859499999996,-122.4258544"
244,Single Family Residential,3616 Folsom St,San Francisco,CA,94110,1995000,4,4,Bernal Heights,2030,983,,37.7412069,-122.4133888,1900,"37.741206899999995,-122.4133888"
245,Condo/Co-op,527 Oak St,San Francisco,CA,94102,1650000,2,2,Hayes Valley,1820,907,270,37.774205,-122.428032,1900,"37.774205,-122.428032"
246,Condo/Co-op,282 Pixley St,San Francisco,CA,94123,2288000,2,2,Cow Hollow,1733,1320,153,37.7984397,-122.4370474,nan,"37.7984397,-122.43704740000001"
247,Condo/Co-op,330 Mission Bay Blvd #604,San Francisco,CA,94158,2888000,2,2,Mission Bay,1569,1841,969,37.771662,-122.3874533,2008,"37.771662,-122.3874533"
248,Single Family Residential,718 Olmstead St,San Francisco,CA,94134,1159000,4,2,Portola,1660,698,,37.721074,-122.408964,1951,"37.721074,-122.40896399999998"
249,Condo/Co-op,125 Gilbert St #7,San Francisco,CA,94103,1295000,2,2.5,South of Market,1550,835,792,37.7732252,-122.4019151,1996,"37.773225200000006,-122.40191509999998"
250,Single Family Residential,70 Manor Dr,San Francisco,CA,94127,2695000,4,4,Mount Davidson Manor,2796,964,,37.7276432,-122.4642608,1927,"37.7276432,-122.4642608"
251,Single Family Residential,135 15th Ave,San Francisco,CA,94118,4590000,5,3.5,Lake,3939,1165,,37.7855345,-122.4746091,1912,"37.7855345,-122.4746091"
252,Single Family Residential,1874 32nd Ave,San Francisco,CA,94122,1448000,3,2,Central Sunset,1642,882,,37.7522606,-122.4900855,1941,"37.7522606,-122.49008549999999"
253,Single Family Residential,3015 Ulloa St,San Francisco,CA,94116,1580000,4,2,Parkside,1881,840,,37.7403928,-122.4887983,1926,"37.740392799999995,-122.4887983"
254,Single Family Residential,4064 17th St,San Francisco,CA,94114,5150000,4,3.5,Corona Heights,,,,37.762613,-122.4366652,1908,"37.762613,-122.4366652"
255,Condo/Co-op,435 China Basin St #547,San Francisco,CA,94158,1999999,2,2.5,Mission Bay,1685,1187,910,37.7715936,-122.3885893,2012,"37.771593599999996,-122.38858929999999"
256,Single Family Residential,325 Congdon St,San Francisco,CA,94112,1095000,4,2,Excelsior,1237,885,,37.7289951,-122.4257331,1910,"37.7289951,-122.4257331"
257,Condo/Co-op,2011 3rd St #6,San Francisco,CA,94107,1095000,2,2,Central Waterfront,1210,905,562,37.7639479,-122.3884823,1997,"37.7639479,-122.38848229999999"
258,Condo/Co-op,551 Clipper St,San Francisco,CA,94114,1249000,2,1,Noe Valley,1126,1109,225,37.748446,-122.437242,1921,"37.748446,-122.437242"
259,Condo/Co-op,370 De Haro St Unit B10,San Francisco,CA,94103,1695000,2,2.5,Potrero Hill,1622,1045,,37.7654597,-122.4021363,1999,"37.7654597,-122.4021363"
260,Single Family Residential,295 Hazelwood Ave,San Francisco,CA,94127,1749000,2,2,Westwood Highlands,1439,1215,,37.7327358,-122.4554595,nan,"37.73273579999999,-122.4554595"
261,Condo/Co-op,160 Hancock St #3,San Francisco,CA,94114,2995000,3,3,Eureka Valley/Dolore,2425,1235,400,37.7605212,-122.431844,2003,"37.76052120000001,-122.431844"
262,Condo/Co-op,1100 Sacramento St #1002,San Francisco,CA,94108,12495000,3,3.75,Nob Hill,4320,2892,5387,37.7929478,-122.4114198,1925,"37.79294779999999,-122.41141979999999"
263,Condo/Co-op,1267 Oak St,San Francisco,CA,94117,679000,1,1,Haight Ashbury,758,896,275,37.772502,-122.440134,1908,"37.772502,-122.44013400000001"
264,Single Family Residential,3741 Broderick St,San Francisco,CA,94123,9300000,5,4,Marina,5016,1854,,37.804979,-122.4457948,1939,"37.804978999999996,-122.44579479999999"
265,Single Family Residential,195 Magellan Ave,San Francisco,CA,94116,3000000,4,3,Forest Hill,2976,1008,,37.7475875,-122.4597055,1950,"37.7475875,-122.4597055"
266,Multi-Family (2-4 Unit),3132-3136 23rd St,San Francisco,CA,94110,1200000,4,3,Inner Mission,2191,548,,37.7541819,-122.4150611,1900,"37.7541819,-122.4150611"
267,Multi-Family (2-4 Unit),479-481 32nd Ave,San Francisco,CA,94121,3250000,8,8,Central Richmond,5320,611,,37.7802087,-122.4925976,1923,"37.7802087,-122.4925976"
268,Townhouse,5031 Diamond Heights Blvd,San Francisco,CA,94131,1499000,3,2.5,Diamond Heights,2188,685,675,37.747421,-122.442688,1979,"37.747421,-122.44268799999999"
269,Condo/Co-op,180 Corwin,San Francisco,CA,94114,995000,2,1,Eureka Valley/Dolore,,,469,37.7581502,-122.4407171,nan,"37.7581502,-122.44071709999999"
270,Condo/Co-op,236 Moultrie St,San Francisco,CA,94110,798000,2,1,Bernal Heights,,,,37.7411202,-122.4159179,1900,"37.741120200000005,-122.4159179"
271,Condo/Co-op,181 Ofarrell St #302,San Francisco,CA,94102,1295000,2,1.5,Downtown,1499,864,805,37.7861884,-122.4076329,2006,"37.78618839999999,-122.40763290000001"
272,Condo/Co-op,195 7th St #309,San Francisco,CA,94103,425000,0,1,South of Market,307,1384,370,37.7782751,-122.4094319,1991,"37.7782751,-122.40943190000002"
273,Condo/Co-op,240 Lombard St #229,San Francisco,CA,94111,599000,1,1,North Waterfront,580,1033,945,37.8042439,-122.4055041,1993,"37.8042439,-122.4055041"
274,Condo/Co-op,45 Bartlett St #416,San Francisco,CA,94110,698000,1,1,Inner Mission,517,1350,540,37.7559364,-122.419286,2014,"37.7559364,-122.41928600000001"
275,Condo/Co-op,2482 Bush St,San Francisco,CA,94115,1650000,2,1,Lower Pacific Height,1522,1084,410,37.786716,-122.438095,1900,"37.786716,-122.43809499999999"
276,Single Family Residential,375 Naples St,San Francisco,CA,94112-2058,1398888,3,1.5,Excelsior,1700,823,,37.7227237,-122.4295645,1917,"37.7227237,-122.4295645"
277,Single Family Residential,180 Princeton St,SAN FRANCISCO,CA,94134,1460000,3,4,SAN FRANCISCO,1794,814,,37.7274034,-122.4157422,1974,"37.7274034,-122.4157422"
278,Condo/Co-op,1468 Francisco St #3,San Francisco,CA,94123,1199000,1,1,Marina,984,1218,350,37.8029289,-122.4294106,1924,"37.8029289,-122.4294106"
279,Multi-Family (2-4 Unit),593-595 Clipper St,San Francisco,CA,94114,3800000,4,3.5,Noe Valley,2309,1646,,37.7484554,-122.4380625,1921,"37.7484554,-122.4380625"
280,Condo/Co-op,1000 North Point St #405,San Francisco,CA,94109,679000,0,1,Russian Hill,,,504,37.8055099,-122.4241573,1965,"37.8055099,-122.42415729999999"
281,Single Family Residential,46 Cook,San Francisco,CA,94118,2790000,4,3,Jordan Park/Laurel Heights,3216,868,,37.782883,-122.452035,1900,"37.782883,-122.45203500000001"
282,Condo/Co-op,2600 18th St #7,San Francisco,CA,94110,1299000,2,2,Inner Mission,1304,996,573,37.762136,-122.4084792,1999,"37.762136,-122.40847920000002"
283,Condo/Co-op,322 Graystone Ter,San Francisco,CA,94114,998000,2,2,Twin Peaks,971,1028,105,37.756323,-122.443739,1958,"37.756322999999995,-122.443739"
284,Single Family Residential,1252 Church St,San Francisco,CA,94110,1195000,2,1,Noe Valley,1050,1138,,37.7506935,-122.4275912,1900,"37.7506935,-122.4275912"
285,Condo/Co-op,1150 Sacramento St #504,San Francisco,CA,94108,2998000,2,2.5,Nob Hill,2555,1173,2715,37.7929839,-122.4117974,1989,"37.792983899999996,-122.41179740000001"
286,Single Family Residential,25 Chaves Ave,San Francisco,CA,94127,1498000,5,3,Miraloma Park,2255,664,,37.7426071,-122.4530269,1931,"37.7426071,-122.45302690000001"
287,Single Family Residential,364 Valley St,San Francisco,CA,94131,998000,1,1,Noe Valley,773,1291,,37.744498,-122.4304226,nan,"37.744498,-122.4304226"
288,Condo/Co-op,4024 18th St,San Francisco,CA,94114,2495000,3,2.5,Eureka Valley/Dolore,1930,1293,,37.7612088,-122.4334281,1900,"37.7612088,-122.4334281"
289,Condo/Co-op,4026 18th St,San Francisco,CA,94114,1995000,3,3,Eureka Valley/Dolore,1690,1180,,37.76117,-122.4334751,1900,"37.76117,-122.4334751"
290,Condo/Co-op,950 Tennessee St #211,San Francisco,CA,94107,1399000,2,2,Central Waterfront,1073,1304,598,37.7596747,-122.3898245,2020,"37.759674700000005,-122.38982450000002"
291,Condo/Co-op,950 Tennessee St #121,San Francisco,CA,94107,1199000,2,2,Central Waterfront,970,1236,598,37.7596747,-122.3898245,2020,"37.759674700000005,-122.38982450000002"
292,Condo/Co-op,950 Tennessee St #208,San Francisco,CA,94107,659000,0,1,Central Waterfront,472,1396,435,37.7596747,-122.3898245,2020,"37.759674700000005,-122.38982450000002"
293,Condo/Co-op,950 Tennessee St #116,San Francisco,CA,94107,669000,0,1,Central Waterfront,472,1417,435,37.7596747,-122.3898245,2020,"37.759674700000005,-122.38982450000002"
294,Condo/Co-op,955 Leavenworth St,SAN FRANCISCO,CA,94109,1545000,3,2,SAN FRANCISCO,1722,897,250,37.7900113,-122.4158089,1908,"37.790011299999996,-122.41580890000002"
295,Single Family Residential,2851 25th St,San Francisco,CA,94110,1895000,3,1.5,Inner Mission,1860,1019,,37.7511649,-122.4072825,1929,"37.7511649,-122.4072825"
296,Single Family Residential,817 Rockdale Dr,San Francisco,CA,94127,1395000,2,1,Miraloma Park,1125,1240,,37.7411205,-122.4533807,1928,"37.7411205,-122.4533807"
297,Condo/Co-op,225 26th Ave #1,San Francisco,CA,94121,1959000,4,3.5,Lake,2031,965,391,37.7851271,-122.4865075,2001,"37.785127100000004,-122.4865075"
298,Condo/Co-op,875 La Playa St #373,San Francisco,CA,94121,625000,1,1,Outer Richmond,767,815,758,37.7716975,-122.5103084,1983,"37.771697499999995,-122.5103084"
299,Condo/Co-op,712 Bryant St #4,San Francisco,CA,94107,1740000,2,2.5,South of Market,2180,798,833,37.7777254,-122.400944,2001,"37.777725399999994,-122.400944"
300,Single Family Residential,150 Beaumont Ave,San Francisco,CA,94118,2795000,5,3,Lone Mountain,2904,962,,37.7789,-122.4543538,1948,"37.7789,-122.45435379999999"
301,Single Family Residential,1820 Kirkham St,San Francisco,CA,94122,2195000,4,3,Central Sunset,2274,965,,37.7598802,-122.4805788,1932,"37.759880200000005,-122.48057879999999"
302,Condo/Co-op,425 1st St #4901,San Francisco,CA,94105,1315000,1,1,South Beach,837,1571,,37.7860625,-122.3921764,2008,"37.7860625,-122.3921764"
303,Condo/Co-op,1788 Clay St #405,San Francisco,CA,94109,925000,1,1,Nob Hill,780,1186,668,37.7925699,-122.4222498,2014,"37.7925699,-122.42224979999999"
304,Condo/Co-op,1177 California St #724,San Francisco,CA,94108,1755000,2,2,Nob Hill,1653,1062,1779,37.7910262,-122.4136476,1978,"37.791026200000005,-122.4136476"
305,Single Family Residential,595 Clipper St,San Francisco,CA,94114,3800000,4,3,Noe Valley,2309,1646,,37.7485106,-122.4380903,1921,"37.7485106,-122.4380903"
306,Single Family Residential,745 Goettingen St,SAN FRANCISCO,CA,94134,1295000,4,3,SAN FRANCISCO,1455,890,,37.7227524,-122.4046828,1951,"37.7227524,-122.4046828"
307,Single Family Residential,2341 Vallejo St,San Francisco,CA,94123,6500000,4,4,Pacific Heights,3685,1764,,37.7949444,-122.4358087,1922,"37.7949444,-122.43580870000001"
308,Multi-Family (2-4 Unit),4231 4231A 26th St,San Francisco,CA,94131,3045000,5,4,Noe Valley,,,,37.7478511,-122.4349444,1907,"37.7478511,-122.43494440000002"
309,Condo/Co-op,755 Capp St,San Francisco,CA,94110,1695000,3,1,Inner Mission,1890,897,200,37.754276,-122.417223,1900,"37.754276000000004,-122.41722299999999"
310,Condo/Co-op,170 King St #409,San Francisco,CA,94107,818000,1,1,South Beach,690,1186,698,37.7789817,-122.3917515,2007,"37.7789817,-122.39175149999998"
311,Condo/Co-op,601 4th St #312,San Francisco,CA,94107,1250000,1,2,South Beach,1147,1090,689,37.7781631,-122.3957778,1916,"37.7781631,-122.39577779999999"
312,Condo/Co-op,35 Alpine Ter #5,San Francisco,CA,94117,2999000,2,2.5,Buena Vista Park,,,715,37.769774,-122.437413,1958,"37.769774,-122.43741299999999"
313,Single Family Residential,1485 11th Ave,San Francisco,CA,94122,1288000,3,2,Inner Sunset,,,,37.7605008,-122.4684179,1922,"37.760500799999996,-122.4684179"
314,Condo/Co-op,4231 26th St #4231,San Francisco,CA,94131,1495000,2,1,Noe Valley,1553,963,,37.747929,-122.4349606,1907,"37.747929,-122.4349606"
315,Condo/Co-op,4231 4231A 26th St Unit 4231A,San Francisco,CA,94131,1550000,3,3,Noe Valley,1401,1106,,37.7478511,-122.4349444,1907,"37.7478511,-122.43494440000002"
316,Condo/Co-op,1945 Hyde St #7,San Francisco,CA,94109,4700000,2,2,Russian Hill,,,1406,37.7988233,-122.4192632,1920,"37.798823299999995,-122.4192632"
317,Single Family Residential,502 Plymouth Ave,San Francisco,CA,94112,795000,2,1,Oceanview,950,837,,37.7151059,-122.4557802,1907,"37.7151059,-122.45578020000002"
318,Multi-Family (5+ Unit),1649 Market St,San Francisco,CA,94103,28500000,4,,South of Market,41544,686,,37.7733868,-122.4212372,1912,"37.7733868,-122.4212372"
319,Condo/Co-op,318 Spear St Unit 3A,San Francisco,CA,94105,1499000,2,2,South Beach,1274,1177,982,37.7897457,-122.3908558,2008,"37.789745700000005,-122.3908558"
320,Condo/Co-op,1160 Mission St #2309,San Francisco,CA,94103,899000,1,1,South of Market,,,805,37.7787037,-122.4126341,2008,"37.7787037,-122.4126341"
321,Condo/Co-op,207 King St #710,San Francisco,CA,94107,1499000,2,1.5,Mission Bay,1302,1151,656,37.7775275,-122.3916855,2003,"37.777527500000005,-122.3916855"
322,Condo/Co-op,250 King St #1504,San Francisco,CA,94107,725000,0,1,Mission Bay,595,1218,799,37.7781222,-122.3932903,2004,"37.7781222,-122.39329029999999"
323,Condo/Co-op,540 De Haro St #204,San Francisco,CA,94107,1795000,2,2.5,Potrero Hill,1495,1201,558,37.763009,-122.4016864,2020,"37.763009000000004,-122.4016864"
324,Single Family Residential,256 Fowler Ave,San Francisco,CA,94127,1998000,3,3,Miraloma Park,1892,1056,,37.7433188,-122.4520624,1932,"37.7433188,-122.4520624"
325,Single Family Residential,2590 Green St,San Francisco,CA,94123,28800000,5,8,Pacific Heights,8630,3337,,37.795586,-122.441718,1920,"37.795586,-122.441718"
326,Condo/Co-op,1488 Harrison St #204,San Francisco,CA,94103,1025000,2,2,South of Market,1102,930,614,37.7709329,-122.4124205,2001,"37.7709329,-122.41242050000001"
327,Single Family Residential,29 Park Hill Ave,San Francisco,CA,94117,4700000,4,4,Buena Vista Park,2810,1673,,37.7676583,-122.4390682,1927,"37.7676583,-122.43906820000001"
328,Single Family Residential,338 Duncan St,San Francisco,CA,94131,4895000,5,5,Noe Valley,3578,1368,,37.7462262,-122.4286088,1900,"37.7462262,-122.42860879999999"
329,Multi-Family (2-4 Unit),66-68 Cook St,San Francisco,CA,94118,2100000,3,3,Jordan Park/Laurel Heights,1905,1102,,37.7826086,-122.4519794,1900,"37.7826086,-122.4519794"
330,Townhouse,419 Fulton St #204,San Francisco,CA,94102,1795000,3,2,Hayes Valley,1443,1244,694,37.7784716,-122.4238129,2000,"37.7784716,-122.4238129"
331,Condo/Co-op,238 Moultrie St,San Francisco,CA,94110,1100000,2,1,Bernal Heights,,,,37.7411267,-122.4159219,1900,"37.7411267,-122.4159219"
332,Condo/Co-op,175 Russ St #5,San Francisco,CA,94103,849000,1,1.5,South of Market,837,1014,584,37.7781581,-122.4069909,2003,"37.7781581,-122.4069909"
333,Condo/Co-op,1075 Market St #408,San Francisco,CA,94103,724000,1,1,South of Market,554,1307,665,37.7807996,-122.4118342,2018,"37.7807996,-122.4118342"
334,Condo/Co-op,425 1st St #1506,San Francisco,CA,94105,1525000,2,2,South Beach,1238,1232,1096,37.7860625,-122.3921764,2008,"37.7860625,-122.3921764"
335,Condo/Co-op,338 Spear St Unit 20B,San Francisco,CA,94105,2695000,2,2,South Beach,,,998,37.7894137,-122.3906433,nan,"37.789413700000004,-122.3906433"
336,Condo/Co-op,65 Hermann St #1,San Francisco,CA,94102,850000,1,1,Hayes Valley,877,969,400,37.7704882,-122.426155,1959,"37.7704882,-122.42615500000001"
337,Multi-Family (5+ Unit),781 Corbett Ave,San Francisco,CA,94131,2300000,4,,Twin Peaks,3344,688,,37.7542112,-122.4425105,1955,"37.7542112,-122.4425105"
338,Condo/Co-op,318 Spear St Unit 8G,San Francisco,CA,94105,1099000,1,1,South Beach,798,1377,891,37.7897457,-122.3908558,2008,"37.789745700000005,-122.3908558"
339,Condo/Co-op,188 Minna St Unit 35D,San Francisco,CA,94105,3800000,2,2.5,Yerba Buena,1792,2121,2743,37.7861462,-122.4013007,2005,"37.786146200000005,-122.4013007"
340,Townhouse,145 Gardenside Dr #22,San Francisco,CA,94131,995000,2,1.5,Twin Peaks,1274,781,751,37.7543339,-122.4449841,1981,"37.7543339,-122.4449841"
341,Condo/Co-op,1300 22nd St #110,San Francisco,CA,94107,1095000,2,2,Potrero Hill,,,673,37.7578379,-122.3944714,2016,"37.7578379,-122.39447140000001"
342,Single Family Residential,474 Arkansas St,San Francisco,CA,94107,1185000,3,1,Potrero Hill,1105,1072,,37.7602025,-122.3984181,1914,"37.760202500000005,-122.39841809999999"
343,Condo/Co-op,73 Wood St,San Francisco,CA,94118,625000,1,1,Jordan Park/Laurel Heights,1080,579,,37.782741,-122.44948,nan,"37.782740999999994,-122.44948000000001"
344,Single Family Residential,830 Rhode Island St,San Francisco,CA,94107,2150000,0,,Potrero Hill,4150,518,,37.7592172,-122.4023154,1900,"37.7592172,-122.4023154"
345,Multi-Family (5+ Unit),734-740 Green St,San Francisco,CA,94133,7750000,21,,North Beach,10670,726,,37.799504,-122.4113437,1907,"37.799504,-122.41134369999999"
346,Condo/Co-op,155 Harriet St #8,San Francisco,CA,94103,999000,2,2,South of Market,,,652,37.7776155,-122.4049895,2001,"37.7776155,-122.4049895"
347,Condo/Co-op,769 19th Ave,San Francisco,CA,94121,1425000,2,1.5,Central Richmond,1400,1018,250,37.7734744,-122.4781367,1922,"37.7734744,-122.47813670000001"
348,Condo/Co-op,355 Buena Vista Ave Unit 512W,San Francisco,CA,94117,1425000,2,2,Buena Vista Park,1030,1383,858,37.7671808,-122.4401329,1986,"37.7671808,-122.44013290000001"
349,Single Family Residential,2587 41st Ave,San Francisco,CA,94116,1095000,3,2,Outer Parkside,1655,662,,37.738546,-122.4992286,1952,"37.738546,-122.49922859999998"
350,Condo/Co-op,1160 Mission St #1907,San Francisco,CA,94103,1200000,2,2,South of Market,1043,1151,915,37.7787037,-122.4126341,2008,"37.7787037,-122.4126341"